City_ID,City,Country,Max Temp,Current Description,Lat,Lng,Hotel Name
0,Lompoc,US,68.02,clear sky,34.6391,-120.4579,"Holiday Inn Express Lompoc, an IHG Hotel"
1,Hobyo,SO,83.77,scattered clouds,5.3505,48.5268,Iftin hotel hobyo
2,Chernoyerkovskaya,RU,53.24,broken clouds,45.4331,37.7686,Chernoyerkovskaya
3,Busselton,AU,61.48,overcast clouds,-33.65,115.3333,Observatory Guest House
4,Ushuaia,AR,46.06,broken clouds,-54.8,-68.3,Albatross Hotel
5,Fomboni,KM,83.46,few clouds,-12.28,43.7425,Auberge les abou
6,Dawei,MM,76.69,overcast clouds,14.0833,98.2,Hotel Dawei
7,Hobart,AU,53.26,overcast clouds,-42.8794,147.3294,St Ives Hobart Accommodation Tasmania
8,Hithadhoo,MV,83.46,overcast clouds,-0.6,73.0833,Scoop Guest House
9,Arraial Do Cabo,BR,76.86,scattered clouds,-22.9661,-42.0278,Pousada Porto Praia
10,Mahon,ES,59.56,clear sky,39.8885,4.2658,ARTIEM Capri
11,Nouadhibou,MR,69.78,overcast clouds,20.931,-17.0347,El Medina
13,Mandalgovi,MN,44.53,clear sky,45.7625,106.2708,В.Ганбат
14,Codo,BR,82.42,overcast clouds,-4.4553,-43.8856,Hotel Porto do Sol
16,Hermanus,ZA,61.81,clear sky,-34.4187,19.2345,Misty Waves Boutique Hotel
17,Chachoengsao,TH,82.92,overcast clouds,13.6167,101.4167,บ้านเจ๊น้อยห้วยหิน
18,Butaritari,KI,81.43,scattered clouds,3.0707,172.7902,Isles Sunset Lodge
19,Mataura,NZ,46.63,overcast clouds,-46.1927,168.8643,Ellie's Villa
22,Rikitea,PF,78.39,clear sky,-23.1203,-134.9692,People ThankYou
23,Pierre,US,48.85,clear sky,44.3683,-100.351,Ramkota Hotel
25,Tuatapere,NZ,53.67,overcast clouds,-46.1333,167.6833,Ron and Tony's Bed & Breakfast
26,Katsuura,JP,56.57,overcast clouds,35.1333,140.3,Katsuura Hotel Mikazuki
28,Bathsheba,BB,84.81,scattered clouds,13.2167,-59.5167,Atlantis Hotel
29,Hokitika,NZ,53.13,overcast clouds,-42.7167,170.9667,Beachfront Hotel Hokitika
31,Katherine,AU,73.72,scattered clouds,-14.4667,132.2667,Pine Tree Motel
33,Palmer,US,59.77,broken clouds,42.1584,-72.3287,Wedgewood Motel
36,Tura,IN,70.61,clear sky,25.5198,90.2201,Hotel RIKMAN Continental
38,Avarua,CK,73.45,overcast clouds,-21.2078,-159.775,Paradise Inn
39,Berlevag,NO,42.6,overcast clouds,70.8578,29.0864,Kvitbrakka
40,Osakarovka,KZ,41.41,overcast clouds,50.565,72.5692,Motel' Osakarovka
41,Hilo,US,77.29,heavy intensity rain,19.7297,-155.09,Hilo Hawaiian Hotel
43,San Quintin,MX,67.77,clear sky,30.4833,-115.95,Don Eddie's Sport Fishing Center
45,Ahipara,NZ,65.5,scattered clouds,-35.1667,173.1667,Ahipara Holiday Park
47,Kruisfontein,ZA,60.89,clear sky,-34.0033,24.7314,Oyster Bay House Rental
48,Kuhdasht,IR,60.55,broken clouds,33.535,47.6061,فروشگاه زنبیل
49,Saint-Philippe,RE,78.39,few clouds,-21.3585,55.7679,"Chambres d'hôte ""La Trinité"""
50,Vanimo,PG,77.72,overcast clouds,-2.6741,141.3028,Vahmoneh Lodge Vanimo
51,Mumford,GH,78.57,overcast clouds,5.2618,-0.759,Spanish Villa
52,Bambous Virieux,MU,79.21,scattered clouds,-20.3428,57.7575,Casa Tia Villa
55,Cockburn Town,TC,82.36,scattered clouds,21.4612,-71.1419,Osprey Beach Hotel
57,Salalah,OM,84.29,broken clouds,17.0151,54.0924,"HAMDAN PLAZA HOTEL SALALAH, an HTG Hotel"
58,Bahar,IR,46.56,clear sky,34.9072,48.4414,هتل ولفجر
59,Atuona,PF,80.04,overcast clouds,-9.8,-139.0333,Villa Enata
60,Pacific Grove,US,63.39,clear sky,36.6177,-121.9166,Lovers Point Inn
61,Mar Del Plata,AR,64.42,scattered clouds,-38.0023,-57.5575,Gran Hotel Mar del Plata
63,Quatre Cocos,MU,79.09,scattered clouds,-20.2078,57.7625,Sunrise Attitude Hotel
64,Ribeira Grande,PT,61.2,broken clouds,38.5167,-28.7,Quinta da Meia Eira
65,Mehamn,NO,40.98,overcast clouds,71.0357,27.8492,Mehamn Arctic Hotel AS
66,Mareeba,AU,68.72,overcast clouds,-17.0,145.4333,Trinity Plains Tourist Park
67,Lorengau,PG,82.36,overcast clouds,-2.0226,147.2712,Lorengau Harbourside Hotel
68,Vaini,TO,77.16,broken clouds,-21.2,-175.2,Keleti Beach Resort
69,Port Elizabeth,ZA,63.1,clear sky,-33.918,25.5701,39 On Nile Guest House
70,Kavaratti,IN,84.22,overcast clouds,10.5669,72.642,Hotels in Lakshadweep Islands
71,Port Hedland,AU,82.45,scattered clouds,-20.3167,118.5667,The Esplanade Hotel
73,Puerto Ayora,EC,78.76,broken clouds,-0.7393,-90.3518,Finch Bay Galapagos Hotel
74,Carnarvon,AU,68.07,few clouds,-24.8667,113.6333,Hospitality Carnarvon
75,Kapaa,US,75.18,few clouds,22.0752,-159.319,Sheraton Kauai Coconut Beach Resort
78,Chicama,PE,63.14,broken clouds,-7.8447,-79.1469,Balihai Bungalows
79,Punta Arenas,CL,51.91,broken clouds,-53.15,-70.9167,Hotel Hain
80,New Norfolk,AU,52.72,overcast clouds,-42.7826,147.0587,The Shingles Riverside Cottages
81,Eureka,US,57.36,overcast clouds,40.8021,-124.1637,Eureka Inn Trademark By Wyndham
82,Sao Joao Da Barra,BR,80.69,scattered clouds,-21.6403,-41.0511,Pousada Porto De Canoas
83,Jeremie,HT,80.55,scattered clouds,18.65,-74.1167,Auberge’Inn
84,Vangaindrano,MG,74.66,light rain,-23.35,47.6,Hotel Fanilo
85,Komsomolskiy,UZ,70.52,overcast clouds,40.4272,71.7189,Ikathouse
87,Manoel Urbano,BR,84.99,overcast clouds,-8.8389,-69.2597,Baixada Beira Rio
88,Fortuna,US,57.09,light rain,40.5982,-124.1573,Super 8 by Wyndham Fortuna
89,Souillac,MU,79.18,scattered clouds,-20.5167,57.5167,Shanti Maurice Resort & Spa
91,Dodge City,US,56.25,scattered clouds,37.7528,-100.0171,Windsor Inn & Suites
92,Umm Lajj,SA,85.87,overcast clouds,25.0213,37.2685,Moon light Furnished Units
93,Dwarka,IN,80.62,clear sky,22.2394,68.9678,Hotel Narayan Avezika Comfort
95,Dunedin,NZ,52.81,overcast clouds,-45.8742,170.5036,Scenic Hotel Southern Cross
96,Belyy Yar,RU,48.09,light rain,53.6039,91.3903,Pasportnyy Stol
98,Mathbaria,BD,79.05,scattered clouds,22.2876,89.9593,Shikdar Hotel
99,Isangel,VU,78.3,overcast clouds,-19.55,169.2667,Tanna Lodge
100,Castro,BR,67.62,scattered clouds,-24.7911,-50.0119,CHACARA BAILLY
101,Torbay,CA,45.39,scattered clouds,47.6666,-52.7314,Gallows Cove
102,San Juan,AR,81.23,clear sky,-31.5375,-68.5364,Hotel Provincial
104,Khani,GE,67.57,broken clouds,41.9563,42.9566,კურორტი ზეკარი/Resort Zekari
106,Ancud,CL,55.22,overcast clouds,-41.8697,-73.8203,Hotel Arena Gruesa
107,Safford,US,84.11,clear sky,32.834,-109.7076,SpringHill Suites by Marriott Thatcher
110,Angers,FR,60.82,overcast clouds,47.4667,-0.55,Hôtel le Continental
111,Wanlaweyn,SO,82.62,overcast clouds,2.6185,44.8938,GAASHAAN HOME
112,Saurimo,AO,67.33,moderate rain,-9.6608,20.3916,Hotel Kawissa Saurimo
113,Namatanai,PG,80.4,light rain,-3.6667,152.4333,Seagulls Inn Namatani
115,Aljezur,PT,58.3,clear sky,37.3191,-8.8033,Amazigh Hostel
116,Lanxi,CN,52.45,overcast clouds,29.2195,119.477,Shangri-La Hotel
117,Port Alfred,ZA,60.19,scattered clouds,-33.5906,26.891,The Halyards Hotel
118,San Cristobal,VE,78.98,overcast clouds,7.7669,-72.225,Pirineos
119,Nikolskoye,RU,46.29,overcast clouds,59.7035,30.7861,Tourist House - Sablino
120,Nieuw Amsterdam,SR,82.56,few clouds,5.8833,-55.0833,Hotel Stardust
121,Guerrero Negro,MX,69.89,broken clouds,27.9769,-114.0611,"Casa Laguna, Bed & Breakfast"
122,Port Lincoln,AU,58.08,scattered clouds,-34.7333,135.8667,Port Lincoln Hotel
124,Bredasdorp,ZA,60.53,clear sky,-34.5322,20.0403,Bredasdorp Country Manor
125,Bilma,NE,84.99,few clouds,18.6853,12.9164,Expeditions Ténére voyages
128,Otane,NZ,57.0,broken clouds,-39.8833,176.6333,Ludlow Farmstay
129,Vestmannaeyjar,IS,47.39,clear sky,63.4427,-20.2734,Glamping & Camping
130,East London,ZA,65.34,light rain,-33.0153,27.9116,Tu Casa
131,Camacha,PT,60.22,broken clouds,33.0833,-16.3333,Hotel Porto Santo & Spa
132,Batsfjord,NO,40.78,overcast clouds,70.6345,29.7185,Adventure Apartements
133,Cidreira,BR,70.99,overcast clouds,-30.1811,-50.2056,Hotel Castelo
134,Kaitangata,NZ,48.9,overcast clouds,-46.2817,169.8464,Kaitangata Motor Camp
135,Nepomuk,CZ,50.52,overcast clouds,49.4862,13.5823,Hotel U zeleného stromu
136,Touros,BR,84.15,overcast clouds,-5.1989,-35.4608,INN NEW HORIZON
138,Bluff,NZ,54.37,light rain,-46.6,168.3333,Bluff Homestead - Guesthouse & Campervan Park
139,Newport,GB,55.11,few clouds,51.5877,-2.9984,ibis budget Newport
140,Paharpur,PK,86.13,broken clouds,32.1038,70.9724,salem .T. Hotal
141,Bengkulu,ID,75.24,overcast clouds,-3.8004,102.2655,Grage Hotel Bengkulu
142,Labuhan,ID,79.48,overcast clouds,-6.8844,112.2051,DoubleFAG
144,La Asuncion,VE,83.93,overcast clouds,11.0333,-63.8628,Colinas de Matasiete
145,Boyolangu,ID,76.24,overcast clouds,-8.1181,111.8935,Yos ega cv
146,Georgetown,MY,80.53,few clouds,5.4112,100.3354,Cititel Penang
148,Kamaishi,JP,45.52,broken clouds,39.2667,141.8833,Hotel Route Inn Kamaishi
149,Victoria,HK,70.25,overcast clouds,22.2855,114.1577,Mini Hotel Central
150,Codajas,BR,80.11,overcast clouds,-3.8367,-62.0569,Atlântic Hotel
152,Buta,CD,72.5,light rain,2.7858,24.73,HOTEL BISO NA BISO
153,Coquimbo,CL,61.25,few clouds,-29.9533,-71.3436,Hotel San Juan
155,Ponta Do Sol,PT,67.12,few clouds,32.6667,-17.1,Hotel do Campo
156,Mesimerion,GR,46.87,overcast clouds,40.412,23.0059,La casa de la madre
157,Nicholasville,US,46.56,overcast clouds,37.8806,-84.573,"Holiday Inn Express Lexington-SW (Nicholasville), an IHG Hotel"
158,Hami,CN,57.36,clear sky,42.8,93.45,Laoyutang Resort
161,Weiser,US,57.87,overcast clouds,44.251,-116.9693,The Colonial Motel
163,Hasaki,JP,52.2,overcast clouds,35.7333,140.8333,Inubosaki Kanko Hotel
164,Goderich,CA,46.9,overcast clouds,43.7501,-81.7165,Harmony Inn
166,San Rafael,AR,77.54,few clouds,-34.6177,-68.3301,Hotel San Rafael
168,Gwadar,PK,80.06,broken clouds,25.1216,62.3254,Sadaf Resort
169,Batemans Bay,AU,62.1,overcast clouds,-35.7167,150.1833,Batemans Bay Marina Resort
170,Bethel,US,53.44,clear sky,41.3712,-73.414,Courtyard by Marriott Danbury
171,Carlyle,US,51.12,overcast clouds,38.6103,-89.3726,Mariner's Village at Carlyle Lake
172,Watsa,CD,65.25,few clouds,3.0372,29.5355,Hôtel Le Pacifique
174,Tautira,PF,80.01,scattered clouds,-17.7333,-149.15,Pension Oaoa
175,Port-Gentil,GA,84.16,broken clouds,-0.7193,8.7815,Fengshui Residence
176,Olafsvik,IS,42.48,few clouds,64.8945,-23.7142,Hotel Olafsvik
177,Saldanha,ZA,64.45,clear sky,-33.0117,17.9442,Blue Bay Lodge
178,Springdale,US,58.55,clear sky,36.1867,-94.1288,Springdale Inn
179,Sur,OM,84.65,clear sky,22.5667,59.5289,Sur Plaza Hotel
180,Oudtshoorn,ZA,55.76,clear sky,-33.5907,22.2014,Earthbound Guest House
181,Santarem,BR,84.33,light rain,-2.4431,-54.7083,Hotel Imperador
183,Chuy,UY,70.63,few clouds,-33.6971,-53.4616,Nuevo Hotel Plaza
187,Ixtapa,MX,81.63,clear sky,20.7,-105.2,hotel la terminal
188,Salinas,US,63.82,clear sky,36.6777,-121.6555,Laurel Inn & Conference Center
190,Townsville,AU,70.68,clear sky,-19.25,146.8,Rydges Southbank Townsville
191,Lebu,CL,57.79,overcast clouds,-37.6167,-73.65,Hostal Las Lilas
192,Iquitos,PE,77.04,broken clouds,-3.7481,-73.2472,Cortez Malaga Techy Caroly
194,Davila,PH,76.98,scattered clouds,18.4726,120.5763,Blue Ridge Beach Resort
195,Ulaangom,MN,46.72,overcast clouds,49.9811,92.0667,Achit Nuur Hotel & Restaurant
196,Moree,AU,60.82,clear sky,-29.4667,149.85,Molika Springs Motel
197,Ridgecrest,US,84.02,scattered clouds,35.6225,-117.6709,SpringHill Suites by Marriott Ridgecrest
198,Coihaique,CL,59.61,scattered clouds,-45.5752,-72.0662,Diego De Almagro Coyhaique
199,Kavieng,PG,82.83,overcast clouds,-2.5744,150.7967,Nusa Island Retreat
200,Port Blair,IN,80.64,mist,11.6667,92.75,"Welcomhotel By ITC Hotels, Bay Island, Port Blair"
201,Abu Dhabi,AE,80.62,clear sky,24.4667,54.3667,Beach Rotana
203,Filadelfia,US,49.21,overcast clouds,39.9523,-75.1638,"The Ritz-Carlton, Philadelphia"
205,Eyl,SO,82.45,clear sky,7.9803,49.8164,Amiin Hotel
207,Saint George,US,82.63,clear sky,37.1041,-113.5841,Best Western Plus Abbey Inn
210,Pyapon,MM,81.68,clear sky,16.2833,95.6833,Aung Naing Thu Motel
211,Geraldton,AU,54.01,clear sky,-28.7667,114.6,Broadwater Mariner Resort
212,Itoman,JP,70.57,overcast clouds,26.1247,127.6694,Southern Beach Hotel & Resort Okinawa
213,Sorland,NO,44.46,broken clouds,67.667,12.6934,Sjybrygga fiskecamp
214,Longkou,CN,51.24,clear sky,37.6508,120.3286,Pai Hotel Yantai Longkou City Heping Road
215,Buala,SB,80.26,overcast clouds,-8.145,159.5921,Maringe Lagoon Lodge
217,Kingori,TZ,67.23,broken clouds,-3.2833,36.9833,Rafiki Hostel
219,Cape Town,ZA,64.9,clear sky,-33.9258,18.4232,"Radisson Blu Hotel Waterfront, Cape Town"
220,Puerto Cabezas,NI,89.56,scattered clouds,14.0351,-83.3888,Cabaña Caribe
221,La Ronge,CA,41.22,overcast clouds,55.1001,-105.2842,Northland Motor Hotel
223,Caraballeda,VE,84.27,broken clouds,10.6112,-66.8522,Hotel 15 Letras
224,Carutapera,BR,82.31,overcast clouds,-1.195,-46.02,Lidera
225,Vung Tau,VN,81.86,broken clouds,10.346,107.0843,Seaside Resort
226,Chacabuco,AR,76.5,clear sky,-34.6417,-60.4739,Club de Pesca Caza y Balneario
227,Aksum,ET,70.83,few clouds,14.1245,38.7244,Remhai Hotel
229,Rafiganj,IN,87.94,clear sky,24.8167,84.65,Umesh sweets
231,Kiama,AU,66.58,overcast clouds,-34.6833,150.8667,The Sebel Kiama Harbourside
233,Hamilton,US,41.09,overcast clouds,39.1834,-84.5333,Six Acres Bed & Breakfast
235,Yeppoon,AU,67.78,broken clouds,-23.1333,150.7333,Villa Mar Colina
239,Panorama,GR,44.11,overcast clouds,40.5878,23.0315,Panorama Hotel
240,Bow Island,CA,49.48,overcast clouds,49.8668,-111.3684,Silver Sage Motel
241,Betafo,MG,63.77,broken clouds,-19.8333,46.85,CHEZ MALALA
243,Rawson,AR,69.37,clear sky,-43.3002,-65.1023,Hosteria Sampedro
244,Owando,CG,75.58,light rain,-0.4819,15.8999,Exaunel Hotel Owando
245,Vila Franca Do Campo,PT,61.21,broken clouds,37.7167,-25.4333,Pestana Bahia Praia
247,Lucapa,AO,69.28,overcast clouds,-8.4192,20.7447,Residência Ulisses Dos Santos
249,Tiarei,PF,82.42,few clouds,-17.5333,-149.3333,Le Rocher de Tahiti
251,Langenhagen,DE,59.02,clear sky,52.45,9.75,Hotel Ambiente Langenhagen Hannover by Tulip Inn
252,Calbiga,PH,74.1,scattered clouds,11.6247,125.0164,Lola Rosa
253,Liverpool,GB,54.28,scattered clouds,53.4106,-2.9779,Premier Inn Liverpool City Centre (Moorfields) hotel
255,Noumea,NC,78.01,broken clouds,-22.2763,166.4572,Hôtel Le Lagon
257,Badarpur,IN,73.22,broken clouds,24.9,92.6,Rejauls home
259,Cayhagan,PH,78.53,clear sky,9.6697,122.4256,Melrose Beach Resort
260,Cap Malheureux,MU,79.47,broken clouds,-19.9842,57.6142,Pereybere Hotel & Spa
261,Haimen,CN,64.29,overcast clouds,23.1935,116.6142,Shantou Chaoyang Donghui Hotel
262,San Jose,US,67.48,broken clouds,37.3394,-121.895,The Westin San Jose
263,Rio Gallegos,AR,51.42,overcast clouds,-51.6226,-69.2181,Hotel Santa Cruz
264,Laguna,US,66.78,clear sky,38.421,-121.4238,"Holiday Inn Express & Suites Elk Grove Central - Hwy 99, an IHG Hotel"
265,Derbent,RU,54.5,overcast clouds,42.0678,48.2899,Elit
266,Shieli,KZ,71.91,overcast clouds,44.1667,66.75,Gostinitsa Aybek Shieli
267,Farafangana,MG,75.65,broken clouds,-22.8167,47.8333,Miarina
268,Avanigadda,IN,83.26,scattered clouds,16.0215,80.9181,AP Camping
270,Tamale,GH,88.52,overcast clouds,9.4008,-0.8393,Tap Hotel
272,Neuquen,AR,71.49,clear sky,-38.9516,-68.0591,Hotel del Comahue
275,Charters Towers,AU,64.13,clear sky,-20.1,146.2667,Cattleman's Rest Motor Inn
276,Korla,CN,59.09,clear sky,41.7597,86.1469,Gulisitan Hotel
277,Winnemucca,US,66.25,clear sky,40.973,-117.7357,Winners Inn Casino
278,Dingle,PH,76.82,scattered clouds,10.9995,122.6711,SEGAYA PROPERTY
279,Erzurum,TR,47.88,overcast clouds,40.0,41.5,Saksi Koyu Muhtarligi
280,Constantine,DZ,60.21,clear sky,36.365,6.6147,Grand Hotel Cirta
282,Isla Del Bosque,MX,82.49,overcast clouds,22.7333,-105.85,San Luis potosi
283,Saint-Georges,GD,82.08,broken clouds,12.0564,-61.7485,Radisson Grenada Beach Resort
286,Tatui,BR,69.98,overcast clouds,-23.3556,-47.8569,Hostel Brigadeiro Jordao
289,Sitka,US,44.49,scattered clouds,57.0531,-135.33,Westmark Sitka
290,Bam,IR,64.94,clear sky,29.106,58.357,Bam Tourist Hotel
291,Rio Grande,BR,77.11,broken clouds,-32.035,-52.0986,Hotel Atlântico Rio Grande
293,Nantucket,US,51.94,clear sky,41.2835,-70.0995,Jared Coffin House
294,Pisco,PE,68.05,clear sky,-13.7,-76.2167,Hotel San Isidro Oficial
296,Cuamba,MZ,68.59,clear sky,-14.8031,36.5372,Hotel Vision
297,Te Anau,NZ,52.66,overcast clouds,-45.4167,167.7167,Kingsgate Hotel Te Anau
298,Chatra,IN,79.84,clear sky,24.2167,84.8667,GOPI BHOJNALAY
299,La Macarena,CO,82.35,overcast clouds,2.1837,-73.7849,Hotel Punto Verde
300,Sao Filipe,CV,72.5,broken clouds,14.8961,-24.4956,Hotel Xaguate
301,Livingston,GB,52.11,few clouds,55.9029,-3.5226,Mercure Livingston Hotel
302,Narsaq,GL,43.02,overcast clouds,60.9167,-46.05,Sleep In Narsaq
303,Tateyama,JP,54.1,overcast clouds,34.9833,139.8667,Tateyama Seaside Hotel
304,Corinto,GR,52.9,overcast clouds,37.9407,22.9573,Ephira Hotel
306,Anqiu,CN,52.32,clear sky,36.4342,119.1925,Super 8 Anqiu Heping Road Coach Station
307,Saint-Michel-Des-Saints,CA,43.93,overcast clouds,46.6834,-73.9159,Motel Du Mont trinity
309,Chernyshkovskiy,RU,62.65,light rain,48.4219,42.2308,"The hotel ""Eugenia"""
310,Rorvik,NO,55.51,clear sky,64.8621,11.2373,Kysthotellet Rørvik AS
313,Presidencia Roque Saenz Pena,AR,77.47,clear sky,-26.7852,-60.4388,Hotel Gualok
315,Belchatow,PL,49.05,overcast clouds,51.3688,19.3567,"Santin. Hotel, restauracja"
316,Mount Isa,AU,62.37,clear sky,-20.7333,139.5,ibis Styles Mt Isa Verona
318,Nushki,PK,71.87,overcast clouds,29.5542,66.0215,Shams hotel
319,Pascagoula,US,75.42,broken clouds,30.3658,-88.5561,Regency Inn
320,Bucerias,MX,82.38,clear sky,20.75,-105.3333,Royal Decameron Complex - Puerto Vallarta
321,Lagoa,PT,58.26,clear sky,39.05,-27.9833,Casa Das Faias
322,Nueva Gerona,CU,85.01,clear sky,21.8833,-82.8,Villa Gerona
324,Port Hardy,CA,42.8,light rain,50.6996,-127.4199,Airport Inn-Port Hardy
325,Marawi,PH,69.75,overcast clouds,7.9986,124.2928,Derogongan Residence
326,Kamina,CD,67.26,broken clouds,-8.7386,24.9906,Guest House Florvia
327,Hirara,JP,71.62,overcast clouds,24.8,125.2833,Hotel Atoll Emerald Miyakojima
328,Kabansk,RU,45.59,broken clouds,52.0486,106.6528,Kaylas
330,Los Llanos De Aridane,ES,65.95,broken clouds,28.6585,-17.9182,Valle Aridane
331,Ponta Delgada,PT,61.52,broken clouds,37.7333,-25.6667,Vila Nova Hotel
332,Kanigiri,IN,84.49,few clouds,15.4,79.5167,COMFORT INN
335,Sultanpur,IN,88.83,clear sky,26.2667,82.0667,OYO 49568 Vrindavan Guest House
336,Mount Gambier,AU,49.91,broken clouds,-37.8333,140.7667,The Commodore
337,San Patricio,US,89.17,scattered clouds,28.017,-97.5169,"Motel 6 Sinton, TX"
338,Portales,US,65.93,overcast clouds,34.1862,-103.3344,"Holiday Inn Express & Suites Portales, an IHG Hotel"
339,Plettenberg Bay,ZA,61.52,few clouds,-34.0527,23.3716,Thanda Vista B&B
340,Prado,BR,79.95,broken clouds,-17.3411,-39.2208,INN CORNER RIVER - PRADO - BAHIA - HOUSING AND HOTEL
342,Santiago De Chuco,PE,61.48,light rain,-8.15,-78.1833,Hostal San Cristóbal
343,Portland,US,55.42,moderate rain,45.5234,-122.6762,Embassy Suites by Hilton Portland Downtown
346,Marsabit,KE,71.89,scattered clouds,2.3284,37.9899,Chicho Hotel
348,Nichinan,JP,61.18,overcast clouds,31.6,131.3667,Guest House Aki
349,Tabou,CI,76.53,overcast clouds,4.423,-7.3528,hotêl doufoulougou
351,Dhidhdhoo,MV,84.56,broken clouds,6.8833,73.1,Dhidhoo beach
354,Muros,ES,56.84,clear sky,42.7762,-9.0603,Apartment Av. Castelao
356,Fenoarivo,MG,64.47,few clouds,-18.933,47.4354,Skyfol Ambodiafontsy
357,Morro Bay,US,68.2,overcast clouds,35.3658,-120.8499,Inn at Morro Bay
361,Broken Hill,AU,56.91,overcast clouds,-31.95,141.4333,Royal Exchange Hotel
362,Khomeyn,IR,54.91,clear sky,33.6423,50.0789,فروشگاه رنگ و ابزار عصاری
363,Viedma,AR,74.1,overcast clouds,-40.8135,-62.9967,Hotel Cristal
364,Mahajanga,MG,78.82,few clouds,-15.7167,46.3167,Restaurant Greedy Coco Lodge Majunga
365,Zomba,MW,65.12,broken clouds,-15.386,35.3188,Trout Farm Campsite
366,Baiyin,CN,45.23,overcast clouds,36.5583,104.2081,GreenTree Alliance Gansu Baiyin Renmin Road Hotel
367,Rosarito,MX,77.41,few clouds,32.3333,-117.0333,Hotel Festival Plaza Rosarito
368,Vila,PT,45.48,overcast clouds,42.0304,-8.1588,Hotel Castrum Villae by Walk Hotels
370,Savelugu,GH,89.35,overcast clouds,9.6244,-0.8253,Yoo Naa's Palace
371,Ljutomer,SI,49.19,overcast clouds,46.5208,16.1975,Farm Stay Frank Ozmec
373,Nhulunbuy,AU,77.61,broken clouds,-12.2333,136.7667,East Arnhem Real Estate
374,Kirakira,SB,78.93,overcast clouds,-10.4544,161.9205,SanBiz Lodge
376,Kununurra,AU,76.98,scattered clouds,-15.7667,128.7333,Hotel Kununurra
378,Saint-Joseph,RE,76.21,clear sky,-21.3667,55.6167,"""Plantation Bed and Breakfast"
379,Hirado,JP,59.65,overcast clouds,33.3597,129.5531,Samson Hotel
380,Kieta,PG,77.9,light rain,-6.2167,155.6333,Uruna Bay Retreat
381,Tainan,TW,73.18,broken clouds,22.9908,120.2133,Tie Dao Hotel
382,Codrington,AU,55.74,overcast clouds,-38.2667,141.9667,Codrington Gardens Bed And Breakfast
383,Lexington,US,44.98,overcast clouds,37.9887,-84.4777,DoubleTree Suites by Hilton Hotel Lexington
384,Juneau,US,41.99,scattered clouds,58.3019,-134.4197,"Baranof Downtown, BW Signature Collection"
386,Kutum,SD,86.54,overcast clouds,14.2,24.6667,Dibbo areaمنطقة دبو
387,Acajutla,SV,87.37,few clouds,13.5928,-89.8275,Laureles
388,Nautla,MX,85.17,scattered clouds,20.2167,-96.7833,Casa Blanca
390,Stornoway,GB,46.92,broken clouds,58.2093,-6.3865,Caladh Inn
391,Akhaldaba,GE,72.16,light rain,41.654,42.1516,Hotel Babus Marani
392,Tuy Hoa,VN,73.78,overcast clouds,13.0833,109.3,CenDeluxe Hotel Tuy Hoa
393,Ventspils,LV,40.93,clear sky,57.3894,21.5606,Jūras brīze
394,Oeiras Do Para,BR,83.23,broken clouds,-2.0031,-49.8544,Araticu Soft Hotel
395,Baruun-Urt,MN,48.87,scattered clouds,46.6806,113.2792,Ахмадын амралт сувилал
396,Marsa Matruh,EG,62.8,scattered clouds,31.3525,27.2453,Beau Site
398,Biaora,IN,89.4,few clouds,23.8667,76.9167,SARPANCH MOTEL HOTEL
399,Hit,IQ,77.45,clear sky,33.6416,42.8251,بيت ابو رباح
400,Samarai,PG,80.69,overcast clouds,-10.6167,150.6667,Nuli Sapi
401,Lata,PT,52.61,broken clouds,40.1629,-8.3327,Casa Maquia
402,North Bend,US,55.31,overcast clouds,43.4065,-124.2243,Red Lion Hotel Coos Bay
403,Celestun,MX,84.92,clear sky,20.8667,-90.4,Posada Lilia
404,Mangrol,IN,80.78,clear sky,21.1167,70.1167,Hotel The Royal Honours
406,Butembo,CD,58.93,overcast clouds,0.15,29.2833,Hotel Butembo
407,Haysville,US,56.46,overcast clouds,37.5645,-97.3523,HAYSVILLE EXPRESS INN
408,Hofn,IS,46.42,light intensity drizzle,64.2539,-15.2082,Hótel Höfn
409,Kerema,PG,76.48,overcast clouds,-7.9631,145.7785,Frena Lodge
410,Agucadoura,PT,62.24,clear sky,41.4318,-8.7804,Varzinn Hotel
413,A Coruna,ES,55.78,light rain,43.3713,-8.396,Hotel Zenit Coruña
415,Lubbock,US,67.37,few clouds,33.6001,-101.8338,La Quinta Inn by Wyndham Lubbock - Downtown Civic Center
416,Makakilo City,US,76.19,clear sky,21.3469,-158.0858,Marriott's Ko Olina Beach Club
418,Monrovia,LR,80.55,overcast clouds,6.3005,-10.7969,Sunset Inn
421,Iralaya,HN,85.15,clear sky,15.0,-83.2333,Iglesia morava renovada
422,Port Angeles,US,49.33,broken clouds,48.1181,-123.4307,Red Lion Hotel Port Angeles Harbor
423,Upington,ZA,68.38,clear sky,-28.4478,21.2561,River Place Manor
425,Pedernales,DO,81.91,overcast clouds,18.0384,-71.744,Hotel Costa Marina
426,Acari,PE,78.98,broken clouds,-15.4311,-74.6158,HOSPEDAJE XIMENA
427,Banda Aceh,ID,80.6,scattered clouds,5.5577,95.3222,OYO 884 Rumoh PMI Hotel
428,Ugoofaaru,MV,84.49,overcast clouds,5.6667,73.0,Ungoofaaru Inn
431,Talcahuano,CL,59.0,broken clouds,-36.7167,-73.1167,departamento comodo
433,Margate,GB,56.1,overcast clouds,51.3813,1.3862,Premier Inn Margate hotel
434,Sinnamary,GF,80.11,moderate rain,5.3833,-52.95,ALETHEIA Appartement Sinnamary
442,Esperance,AU,55.24,broken clouds,-33.8667,121.9,Hospitality Esperance
443,Kerrville,US,80.94,clear sky,30.0474,-99.1403,Inn Of The Hills Hotel & Conference Center
444,Comodoro Rivadavia,AR,60.66,clear sky,-45.8667,-67.5,Austral Hotel
445,Bonoua,CI,80.22,moderate rain,5.2741,-3.595,Hotel Bon Samaritian
446,Port Moresby,PG,74.62,scattered clouds,-9.4431,147.1797,Lamana Hotel (Port Moresby)
447,Kahului,US,77.02,few clouds,20.8947,-156.47,Maui Seaside Hotel
448,Balugaon,IN,81.09,clear sky,20.1667,85.1,Kridashpur Kalyan Mandap
449,El Alto,PE,78.46,broken clouds,-4.2714,-81.2147,Black Marlin Restaurant & Hospedaje
452,Gardez,AF,53.15,light rain,33.5974,69.2259,Gardezi Home
453,Grindavik,IS,45.07,broken clouds,63.8424,-22.4338,Northern Light Inn & Max's Restaurant
454,Faya,SA,72.12,light rain,18.3851,42.4509,املاك خالد الشعشوع
456,Kirkwood,US,52.72,scattered clouds,38.5834,-90.4068,"Holiday Inn St Louis SW - Route 66, an IHG Hotel"
457,Launceston,AU,55.04,overcast clouds,-41.45,147.1667,Hotel Grand Chancellor Launceston
458,Aden,YE,83.44,scattered clouds,12.7794,45.0367,Sama Emirate Hotel
459,Diego De Almagro,CL,76.06,clear sky,-26.3667,-70.05,hotel luna del desierto
460,Gat,IL,67.82,overcast clouds,31.61,34.7642,OlusHome
461,Pandan,PH,77.49,few clouds,14.0453,124.1694,Bonifacio Lodge
462,Cayenne,GF,77.04,overcast clouds,4.9333,-52.3333,Hôtel Le Dronmi
464,Taunggyi,MM,64.47,few clouds,20.7833,97.0333,True Treasure Hotel
465,Faanui,PF,80.56,light rain,-16.4833,-151.75,Bora-Bora Pearl Beach Resort & Spa
466,Garowe,SO,81.66,light rain,8.4054,48.4845,Curubo Hotel
467,Shingu,JP,54.25,overcast clouds,33.7333,135.9833,Shingu UI Hotel
469,Alta Floresta,BR,87.62,scattered clouds,-9.8756,-56.0861,Floresta Amazonica Hotel
471,Pau Dos Ferros,BR,83.89,broken clouds,-6.1125,-38.2063,Hertz Center Hotel
472,Vila Velha,BR,80.55,few clouds,-20.3297,-40.2925,Hotel Vitória Palace
473,Fare,PF,80.74,clear sky,-16.7,-151.0167,Maitai Lapita Village Huahine
474,Brooks,CA,48.18,overcast clouds,50.5834,-111.8851,Heritage Inn Hotel & Convention Centre
475,Paraiso,CR,80.96,overcast clouds,9.8383,-83.8656,Hotel Rinconcito Verde
476,Ngunguru,NZ,67.32,light rain,-35.6167,174.5,Pacific Rendezvous Motel Resort
478,Waipawa,NZ,52.45,few clouds,-41.4122,175.5153,Tora Coastal Walk
479,Anshun,CN,47.28,overcast clouds,26.25,105.9333,安顺麦吉风格酒店
480,Banjar,ID,77.52,light rain,-8.19,114.9675,The Hamsa Resort
481,Gigmoto,PH,77.25,scattered clouds,13.7796,124.39,Cj's Travellers Inn
482,Saint-Pierre,RE,77.29,scattered clouds,-21.3393,55.4781,Lindsey Hôtel
483,Kharod,IN,89.37,scattered clouds,21.75,82.5667,STARiHOTELS Sheorinarayan
484,Mahebourg,MU,79.25,scattered clouds,-20.4081,57.7,Shandrani Beachcomber Resort & Spa
485,Muriwai Beach,NZ,66.34,light rain,-36.8167,174.45,Coast Retreat Muriwai - Golf and Surf Holiday
487,Rosetta,EG,63.07,overcast clouds,31.4044,30.4164,Green Valley
488,Skibbereen,IE,46.11,scattered clouds,51.55,-9.2667,The West Cork Hotel
489,Klaksvik,FO,45.52,light rain,62.2266,-6.589,Airbnb rooms
490,Lae,PG,76.26,heavy intensity rain,-6.7221,146.9847,Phils Hotel
491,Zhanakorgan,KZ,72.61,overcast clouds,43.9098,67.2495,"""Ақпалас"" қонақ үйі"
492,Flinders,AU,68.38,overcast clouds,-34.5833,150.8552,Shellharbour Resort & Conference Centre
493,Atambua,ID,73.35,overcast clouds,-9.1061,124.8925,Kost Alfa Flat
494,Ketchikan,US,50.47,clear sky,55.3422,-131.6461,Snow's Cove Lodge
495,Sujiatun,CN,46.58,clear sky,41.6592,123.3392,Hunnan Di Yicun Northern District
496,Naze,JP,61.72,light rain,28.3667,129.4833,Shishime Hotel
497,Maunabo,PR,87.48,broken clouds,18.0072,-65.8993,Maunacaribe
502,Brantford,CA,44.28,overcast clouds,43.1334,-80.2664,Comfort Inn
504,Tashtyp,RU,49.95,overcast clouds,52.7939,89.8983,Oblachnyye Glubiny Orden Gusu Lan'
505,Batesville,US,60.62,clear sky,35.7698,-91.641,"Holiday Inn Express & Suites Batesville, an IHG Hotel"
507,Saint-Gaudens,FR,55.02,overcast clouds,43.0833,0.6667,L'Ardiégeoise
509,Almeirim,BR,84.43,broken clouds,-1.5233,-52.5817,Ricácio Hotel
510,La Massana,AD,50.31,overcast clouds,42.5667,1.4833,Xalet Verdú
511,Itaituba,BR,86.16,scattered clouds,-4.2761,-55.9836,Hotel Campos
512,Maragogi,BR,80.98,broken clouds,-9.0122,-35.2225,Salinas do Maragogi All Inclusive Resort
513,Kudahuvadhoo,MV,83.73,broken clouds,2.6708,72.8944,Niyama Private Islands Maldives
514,Mayumba,GA,78.69,overcast clouds,-3.432,10.6554,LIKWALE LODGE
515,Novo Oriente,BR,82.09,overcast clouds,-5.5344,-40.7742,Golden Palace Hotel
516,Gallup,US,75.04,clear sky,35.5281,-108.7426,Quality Inn & Suites Gallup I-40 Exit 20
518,Mersing,MY,78.71,few clouds,2.4312,103.8405,Timotel Hotel
521,Paka,MY,80.53,overcast clouds,4.6374,103.4368,RUMBIA RESORT VILLA Paka Terengganu
522,Atasu,KZ,51.66,broken clouds,48.6814,71.6433,Dostyk
523,Axim,GH,78.75,overcast clouds,4.8699,-2.2405,Axim Beach Resort And Spa
525,Hambantota,LK,79.14,broken clouds,6.1241,81.1185,Bungalow 63
526,Dembi Dolo,ET,61.63,light rain,8.5333,34.8,Dembi dollo plaza
527,Karratha,AU,83.17,clear sky,-20.7377,116.8463,ibis Styles Karratha
528,Faro,PT,74.98,clear sky,37.0194,-7.9322,Hotel Faro & Beach Club
529,Santiago,CL,78.28,clear sky,-33.4569,-70.6483,Hotel Panamericano
530,Villa Carlos Paz,AR,75.4,clear sky,-31.4241,-64.4978,Monte Carlo vcp
533,Yulara,AU,58.84,clear sky,-25.2406,130.9889,Desert Gardens Hotel - Ayers Rock Resort
534,La Palma,US,80.82,broken clouds,33.8464,-118.0467,La Quinta Inn & Suites by Wyndham Buena Park
535,Marienburg,PL,43.57,overcast clouds,54.0359,19.0266,Hotel Centrum Malbork
536,Barranca,PE,70.52,overcast clouds,-10.75,-77.7667,El Olivar Hospedaje
537,Rawlins,US,57.34,clear sky,41.7911,-107.2387,"Holiday Inn Express Rawlins, an IHG Hotel"
538,Harbour Breton,CA,41.79,overcast clouds,47.4833,-55.7983,Southern Port Hotel
539,Jaicos,BR,83.77,light rain,-7.3592,-41.1378,Hotel Jaicós
540,Cahul,MD,43.79,overcast clouds,45.9075,28.1944,Auto Lux
542,Biak,ID,76.39,broken clouds,-0.9131,122.8766,Penginapan Kim
543,Paita,PE,74.28,broken clouds,-5.0892,-81.1144,Hotel Náutico de Paita
544,Altamira,BR,89.69,scattered clouds,-3.2033,-52.2064,Requinte Hotel
545,Mao,ES,57.76,clear sky,39.8885,4.2658,ARTIEM Capri
546,Moron,AR,73.99,scattered clouds,-34.6534,-58.6198,Hotel Morón
547,Belmonte,BR,77.04,overcast clouds,-15.8631,-38.8828,Pousada Monte Carmelo O Pão
549,Iquique,CL,67.24,clear sky,-20.2208,-70.1431,Backpacker`s Hostel Iquique
551,Tual,ID,83.68,overcast clouds,-5.6667,132.75,Grand Vilia Hotel
553,Youghal,IE,51.1,broken clouds,51.95,-7.8506,Quality Hotel and Leisure Centre Youghal
554,The Valley,AI,84.06,scattered clouds,18.217,-63.0578,CeBlue Villas & Beach Resort
555,Mardin,TR,62.76,overcast clouds,37.3131,40.7436,Reyhani Kasri Hotel
556,Sola,VU,82.0,overcast clouds,-13.8833,167.55,Leumerus Bungalows
558,Bondowoso,ID,74.71,overcast clouds,-7.9135,113.8214,Anugerah Hotel Bondowoso
559,Rapar,IN,82.13,few clouds,23.5667,70.6333,Dharamshi Bapa’s Home
562,Pallasovka,RU,56.26,light rain,50.05,46.8833,"Hotel ""Natalia"""
563,Mednogorsk,RU,54.25,overcast clouds,51.4128,57.595,"Hotel ""Central"""
565,Jalu,LY,69.44,clear sky,29.0331,21.5482,صاحبة الفخامة
566,Luohe,CN,50.16,overcast clouds,33.5717,114.0353,BNB 29-Tunxi Old Street Branch
567,Birjand,IR,50.47,scattered clouds,32.8663,59.2211,Birjand Tourist Hotel
568,Homer,US,41.77,clear sky,59.6425,-151.5483,Beluga Lake Lodge
569,Mogadishu,SO,82.99,overcast clouds,2.0371,45.3438,Hotel Juba
570,Alofi,NU,76.89,broken clouds,-19.0595,-169.9187,Taloa Heights
572,Abha,SA,71.85,few clouds,18.2164,42.5053,Abha Hotel
573,Brae,GB,45.39,overcast clouds,60.3964,-1.353,Busta House Hotel
575,Srandakan,ID,77.07,overcast clouds,-7.9386,110.2506,Puri Brata
576,Maldonado,UY,70.99,overcast clouds,-34.6667,-54.9167,La Cimarrona
580,Takoradi,GH,79.34,overcast clouds,4.8845,-1.7554,Raybow International Hotel
581,Alice Springs,AU,63.95,clear sky,-23.7,133.8833,Desert Palms Alice Springs
583,Barcelos,PT,61.84,few clouds,41.5388,-8.6151,Hotel Restaurante Bagoeira
584,Pandamatenga,BW,67.69,broken clouds,-18.5278,25.627,Wildtrack Safaris Eco Lodge
585,Malangwa,NP,81.36,clear sky,26.8568,85.5581,Prem Meat House
586,Acapulco,MX,84.02,clear sky,16.8634,-99.8901,HS Hotsson Smart Acapulco
591,Kallidaikurichchi,IN,80.6,overcast clouds,8.6667,77.4833,"SNS Lodge in Kallidaikurichi, Ambasamudrum"
592,Hutchinson,US,54.03,scattered clouds,38.0608,-97.9298,Hampton Inn Hutchinson
593,Marystown,CA,40.98,scattered clouds,47.1666,-55.1483,Marystown Hotel & Convention Centre
594,Santiago Del Estero,AR,79.54,clear sky,-27.7951,-64.2615,Apartamentos Castelli 90
595,Chandpur,IN,84.97,clear sky,29.15,78.2667,A.A.S Garments
597,Webuye,KE,64.47,light rain,0.6075,34.7697,Satellite View Hotel
598,Florida,US,84.02,overcast clouds,28.7505,-82.5001,Sportsmens Cove
600,Natal,BR,86.65,scattered clouds,-5.795,-35.2094,Villa Park Hotel | Natal
602,Novomyshastovskaya,RU,64.62,overcast clouds,45.1991,38.5827,Novomyshastovskaya
604,Njombe,TZ,57.31,broken clouds,-9.3333,34.7667,Hillside Hotel
605,Westport,US,53.42,clear sky,41.1415,-73.3579,The Inn at Longshore
606,Dindori,IN,83.34,scattered clouds,22.95,81.0833,Konark Marriage Garden
607,Caravelas,BR,80.28,clear sky,-17.7125,-39.2481,Pousada dos Navegantes
608,Maxixe,MZ,73.22,drizzle,-23.8597,35.3472,Oceano
609,Labrea,BR,81.91,overcast clouds,-7.2586,-64.7981,Hotel Novo Horizonte
610,Salinopolis,BR,82.38,overcast clouds,-0.6136,-47.3561,Salinas Park Resort Maçarico AP101
611,Warrnambool,AU,56.8,moderate rain,-38.3833,142.4833,Lady Bay Resort
613,Sainte-Suzanne,RE,78.98,broken clouds,-20.9061,55.6089,Gites Ango
614,Ilebo,CD,76.14,overcast clouds,-4.3167,20.5833,Hôtel BUMAK
617,Mayo,US,50.04,light rain,38.8876,-76.5119,Resorts Resource Group International
618,Alyangula,AU,73.27,scattered clouds,-13.8483,136.4192,Groote Eylandt Lodge
619,Kloulklubed,PW,77.5,overcast clouds,7.0419,134.2556,Storyboard Beach Resort
620,Coahuayana,MX,89.56,overcast clouds,18.7333,-103.6833,El rranchito michuacan de ocampos
621,Lamu,KE,82.62,overcast clouds,-2.2717,40.902,Lamu House
623,Neka,IR,54.91,clear sky,36.6508,53.299,گالری گل وندا
624,Kendari,ID,77.79,overcast clouds,-3.945,122.4989,Hotel Wixel
625,Roald,NO,54.52,clear sky,62.5833,6.1333,Flem Cabins
627,Inyonga,TZ,66.76,scattered clouds,-6.7167,32.0667,Eden Rock Lodge
628,San Juan De Los Morros,VE,86.16,overcast clouds,9.9115,-67.3538,Hotel La Montaña
630,Rincon,US,78.94,broken clouds,32.296,-81.2354,Days Inn Rincon
631,Maneadero,MX,66.09,clear sky,31.7167,-116.5667,Casa De Thompson
632,Cabedelo,BR,88.47,overcast clouds,-6.9811,-34.8339,Hotel Pigalle
633,Zhangjiakou,CN,50.86,clear sky,40.81,114.8794,Shell Zhangjiakou City Qiaodong District Ginza Hotel
636,Mazamari,PE,84.69,broken clouds,-11.3258,-74.5308,Hospedaje Ratto
637,Kentau,KZ,70.0,overcast clouds,43.5206,68.5094,Safary
638,Urumqi,CN,68.95,clear sky,43.801,87.6005,Hua Ling Grand Hotel Urumqi
640,Ocampo,MX,81.14,clear sky,21.65,-101.5,Hotel Estancia del Vaquero
641,Shenjiamen,CN,55.49,overcast clouds,29.9576,122.298,Jinjiang Inn Zhoushan Putuo Shenjiamen
642,San Andres,CO,86.02,few clouds,12.5847,-81.7006,Hotel Arena Blanca
643,Benito Juarez,MX,81.0,broken clouds,19.385,-99.165,Hotel Beverly
644,Mazatlan,MX,78.91,broken clouds,23.2167,-106.4167,Hotel La Siesta
645,Kismayo,SO,82.53,light rain,-0.3582,42.5454,Agan-Hotel
647,Balikpapan,ID,77.99,scattered clouds,-1.2675,116.8289,Swiss-Belhotel Balikpapan
648,Buenos Aires,AR,73.98,few clouds,-34.6132,-58.3772,Hotel NH Buenos Aires City
649,Balkhash,KZ,58.17,overcast clouds,46.844,74.9804,Family
650,Darnah,LY,60.57,clear sky,32.767,22.6367,فندق الفردوس
651,Hovd,MN,48.0,overcast clouds,48.0056,91.6419,Hotel Khovd
652,Kalabo,ZM,69.78,overcast clouds,-14.97,22.6814,Sikakubete Guest House Kalabo Town Council
653,Jiexiu,CN,51.08,clear sky,37.0244,111.9125,IU Hotel Jinzhong Yuhua Road
654,Khasan,RU,41.04,clear sky,42.4308,130.6434,Fangchuan Self-Driving Camp
655,Bandarbeyla,SO,81.82,clear sky,9.4942,50.8122,JABIR HOTEL
657,Asfi,MA,63.57,broken clouds,32.2994,-9.2372,Hôtel Abda
658,Carhuamayo,PE,53.74,overcast clouds,-10.9167,-76.0333,Hospedaje Santa Rosa
660,Castro Verde,PT,65.62,clear sky,37.6983,-8.0858,Hotel A Esteva
661,Castlemaine,AU,56.28,light rain,-37.0667,144.2167,Fig Cafe & Accommodation
662,Wuwei,CN,46.63,overcast clouds,37.9281,102.6414,Thank Inn Chain Hotel gansu wuwei liangzhou district xiguan middle road
664,Saint Simons,US,78.85,scattered clouds,31.1352,-81.3901,"Holiday Inn Express Saint Simons Island, an IHG Hotel"
665,Marsh Harbour,BS,77.36,broken clouds,26.5412,-77.0636,Abaco Beach Resort
666,Maloy,NO,51.53,clear sky,61.9353,5.1136,Torget Hotell
667,Santa Maria,BR,76.3,scattered clouds,-29.6842,-53.8069,Hotel Morotin
668,Antalaha,MG,74.75,overcast clouds,-14.9003,50.2788,Hotel Vitasoa
669,Hanko,FI,40.14,scattered clouds,59.8333,22.95,Villa Maija
671,Caluquembe,AO,61.43,light rain,-13.7833,14.6833,Hotel Kalukembe
672,Torbat-E Jam,IR,50.4,overcast clouds,35.244,60.6225,White building
673,Skjervoy,NO,48.2,overcast clouds,70.0311,20.9714,Skjervøy fiskecamp AS
674,Can,TR,42.55,overcast clouds,40.0333,27.0524,Can Ogretmenevi
675,Sampit,ID,76.39,moderate rain,-2.5333,112.95,Aquarius Boutique Hotel Sampit
676,Qingdao,CN,49.6,haze,36.0986,120.3719,Le Meridien Qingdao
677,Malkangiri,IN,84.92,clear sky,18.35,81.9,MR-SAGAR_KUMAR_RTR™
678,Wladyslawowo,PL,45.93,overcast clouds,54.7909,18.4009,Gwiazda Morza Resort SPA&SPORT
680,Yazd,IR,62.71,clear sky,31.8972,54.3675,Mozaffar Traditional Hotel
681,Bagar,IN,85.55,clear sky,28.1874,75.5005,"The Piramal Haveli (20th Century; Shekhavati, Rajasthan)"
682,Sweetwater,US,90.0,broken clouds,25.7634,-80.3731,Courtyard by Marriott Miami at Dolphin Mall
684,Basco,PH,77.09,broken clouds,20.4487,121.9702,Nathaniel's Lodge
686,Vlagtwedde,NL,59.25,clear sky,53.0275,7.1083,Roompot Vakantiepark Emslandermeer
687,Konya,TR,53.65,clear sky,38.1667,32.5,Bahcesaray Koyu Muhtarligi
688,Puerto Colombia,CO,78.89,scattered clouds,10.9878,-74.9547,Hotel El Emigrante
