City_ID,City,Country,Lat,Lng,Max Temp,Humidity,Cloudiness,Wind Speed,Current Description
0,Lompoc,US,34.6391,-120.4579,68.02,65,0,17.0,clear sky
1,Hobyo,SO,5.3505,48.5268,83.77,80,44,14.27,scattered clouds
2,Chernoyerkovskaya,RU,45.4331,37.7686,53.24,77,73,5.91,broken clouds
3,Busselton,AU,-33.65,115.3333,61.48,87,94,5.08,overcast clouds
4,Ushuaia,AR,-54.8,-68.3,46.06,71,75,4.61,broken clouds
5,Fomboni,KM,-12.28,43.7425,83.46,73,24,9.1,few clouds
6,Dawei,MM,14.0833,98.2,76.69,90,100,2.77,overcast clouds
7,Hobart,AU,-42.8794,147.3294,53.26,81,100,4.61,overcast clouds
8,Hithadhoo,MV,-0.6,73.0833,83.46,71,100,2.91,overcast clouds
9,Arraial Do Cabo,BR,-22.9661,-42.0278,76.86,69,40,8.05,scattered clouds
10,Mahon,ES,39.8885,4.2658,59.56,72,0,6.91,clear sky
11,Nouadhibou,MR,20.931,-17.0347,69.78,78,100,14.97,overcast clouds
12,Tiksi,RU,71.6872,128.8694,-3.77,100,100,2.73,overcast clouds
13,Mandalgovi,MN,45.7625,106.2708,44.53,34,0,15.48,clear sky
14,Codo,BR,-4.4553,-43.8856,82.42,89,85,2.04,overcast clouds
15,Belaya Gora,RU,68.5333,146.4167,-3.57,100,100,3.13,overcast clouds
16,Hermanus,ZA,-34.4187,19.2345,61.81,88,3,9.8,clear sky
17,Chachoengsao,TH,13.6167,101.4167,82.92,84,100,2.04,overcast clouds
18,Butaritari,KI,3.0707,172.7902,81.43,75,26,12.37,scattered clouds
19,Mataura,NZ,-46.1927,168.8643,46.63,89,100,3.29,overcast clouds
20,Qaanaaq,GL,77.484,-69.3632,-7.92,80,9,1.68,clear sky
21,Chokurdakh,RU,70.6333,147.9167,-5.98,100,64,4.23,broken clouds
22,Rikitea,PF,-23.1203,-134.9692,78.39,66,6,14.54,clear sky
23,Pierre,US,44.3683,-100.351,48.85,33,0,8.05,clear sky
24,Sovetskaya,RU,44.7769,41.1722,62.73,67,100,7.67,light rain
25,Tuatapere,NZ,-46.1333,167.6833,53.67,87,100,5.61,overcast clouds
26,Katsuura,JP,35.1333,140.3,56.57,87,100,12.57,overcast clouds
27,Shubarshi,KZ,48.5872,57.1869,58.03,46,100,5.39,overcast clouds
28,Bathsheba,BB,13.2167,-59.5167,84.81,65,40,19.57,scattered clouds
29,Hokitika,NZ,-42.7167,170.9667,53.13,71,100,4.83,overcast clouds
30,Nanortalik,GL,60.1432,-45.2371,35.01,74,100,1.99,overcast clouds
31,Katherine,AU,-14.4667,132.2667,73.72,73,48,0.0,scattered clouds
32,Khatanga,RU,71.9667,102.5,0.59,98,95,8.48,overcast clouds
33,Palmer,US,42.1584,-72.3287,59.77,24,75,7.0,broken clouds
34,Ilulissat,GL,69.2167,-51.1,15.82,79,100,12.66,light shower snow
35,Merced,US,37.1666,-120.7516,66.54,40,29,7.07,scattered clouds
36,Tura,IN,25.5198,90.2201,70.61,87,0,4.21,clear sky
37,Norman Wells,CA,65.282,-126.8329,17.64,41,0,9.22,clear sky
38,Avarua,CK,-21.2078,-159.775,73.45,94,100,2.3,overcast clouds
39,Berlevag,NO,70.8578,29.0864,42.6,96,100,26.57,overcast clouds
40,Osakarovka,KZ,50.565,72.5692,41.41,83,100,13.49,overcast clouds
41,Hilo,US,19.7297,-155.09,77.29,91,100,5.75,heavy intensity rain
42,Longyearbyen,SJ,78.2186,15.6401,15.64,73,20,3.44,few clouds
43,San Quintin,MX,30.4833,-115.95,67.77,65,6,19.73,clear sky
44,Saint Anthony,US,45.0205,-93.218,37.24,71,100,23.02,overcast clouds
45,Ahipara,NZ,-35.1667,173.1667,65.5,95,39,6.08,scattered clouds
46,Saskylakh,RU,71.9167,114.0833,11.5,94,100,14.76,light snow
47,Kruisfontein,ZA,-34.0033,24.7314,60.89,90,7,3.0,clear sky
48,Kuhdasht,IR,33.535,47.6061,60.55,20,76,4.03,broken clouds
49,Saint-Philippe,RE,-21.3585,55.7679,78.39,88,22,11.18,few clouds
50,Vanimo,PG,-2.6741,141.3028,77.72,87,100,2.33,overcast clouds
51,Mumford,GH,5.2618,-0.759,78.57,80,100,5.14,overcast clouds
52,Bambous Virieux,MU,-20.3428,57.7575,79.21,94,40,10.36,scattered clouds
53,Umm Kaddadah,SD,13.6017,26.6876,90.12,27,81,1.45,broken clouds
54,Severo-Kurilsk,RU,50.6789,156.125,28.71,90,76,5.03,broken clouds
55,Cockburn Town,TC,21.4612,-71.1419,82.36,65,40,16.11,scattered clouds
56,Evensk,RU,61.95,159.2333,23.04,96,100,3.49,overcast clouds
57,Salalah,OM,17.0151,54.0924,84.29,79,75,6.91,broken clouds
58,Bahar,IR,34.9072,48.4414,46.56,31,0,2.3,clear sky
59,Atuona,PF,-9.8,-139.0333,80.04,70,95,17.13,overcast clouds
60,Pacific Grove,US,36.6177,-121.9166,63.39,60,0,5.75,clear sky
61,Mar Del Plata,AR,-38.0023,-57.5575,64.42,92,40,20.0,scattered clouds
62,Sandusky,US,41.3501,-83.1332,35.56,85,100,3.0,snow
63,Quatre Cocos,MU,-20.2078,57.7625,79.09,85,28,11.12,scattered clouds
64,Ribeira Grande,PT,38.5167,-28.7,61.2,63,75,14.97,broken clouds
65,Mehamn,NO,71.0357,27.8492,40.98,98,100,26.31,overcast clouds
66,Mareeba,AU,-17.0,145.4333,68.72,93,100,2.08,overcast clouds
67,Lorengau,PG,-2.0226,147.2712,82.36,73,100,7.31,overcast clouds
68,Vaini,TO,-21.2,-175.2,77.16,94,75,3.44,broken clouds
69,Port Elizabeth,ZA,-33.918,25.5701,63.1,92,0,3.44,clear sky
70,Kavaratti,IN,10.5669,72.642,84.22,74,97,6.6,overcast clouds
71,Port Hedland,AU,-20.3167,118.5667,82.45,36,37,8.05,scattered clouds
72,Tasiilaq,GL,65.6145,-37.6368,33.96,97,100,5.99,light snow
73,Puerto Ayora,EC,-0.7393,-90.3518,78.76,82,83,8.37,broken clouds
74,Carnarvon,AU,-24.8667,113.6333,68.07,77,24,10.36,few clouds
75,Kapaa,US,22.0752,-159.319,75.18,70,20,19.57,few clouds
76,Hinton,CA,53.4001,-117.5857,36.0,61,100,6.82,overcast clouds
77,Jamestown,US,42.097,-79.2353,38.52,63,100,17.27,light snow
78,Chicama,PE,-7.8447,-79.1469,63.14,61,51,10.63,broken clouds
79,Punta Arenas,CL,-53.15,-70.9167,51.91,62,75,10.36,broken clouds
80,New Norfolk,AU,-42.7826,147.0587,52.72,67,100,1.77,overcast clouds
81,Eureka,US,40.8021,-124.1637,57.36,71,100,10.0,overcast clouds
82,Sao Joao Da Barra,BR,-21.6403,-41.0511,80.69,66,27,13.47,scattered clouds
83,Jeremie,HT,18.65,-74.1167,80.55,74,34,3.15,scattered clouds
84,Vangaindrano,MG,-23.35,47.6,74.66,88,98,5.7,light rain
85,Komsomolskiy,UZ,40.4272,71.7189,70.52,46,86,2.3,overcast clouds
86,Upernavik,GL,72.7868,-56.1549,7.57,91,100,1.79,light snow
87,Manoel Urbano,BR,-8.8389,-69.2597,84.99,57,85,5.21,overcast clouds
88,Fortuna,US,40.5982,-124.1573,57.09,81,100,23.02,light rain
89,Souillac,MU,-20.5167,57.5167,79.18,94,40,10.36,scattered clouds
90,Aklavik,CA,68.2191,-135.0107,15.8,48,0,6.91,clear sky
91,Dodge City,US,37.7528,-100.0171,56.25,39,40,5.01,scattered clouds
92,Umm Lajj,SA,25.0213,37.2685,85.87,35,97,3.18,overcast clouds
93,Dwarka,IN,22.2394,68.9678,80.62,78,5,12.08,clear sky
94,Tuktoyaktuk,CA,69.4541,-133.0374,8.6,66,0,6.91,clear sky
95,Dunedin,NZ,-45.8742,170.5036,52.81,85,91,4.99,overcast clouds
96,Belyy Yar,RU,53.6039,91.3903,48.09,46,0,8.95,light rain
97,Dikson,RU,73.5069,80.5464,2.35,94,100,13.27,overcast clouds
98,Mathbaria,BD,22.2876,89.9593,79.05,90,25,4.07,scattered clouds
99,Isangel,VU,-19.55,169.2667,78.3,86,100,5.1,overcast clouds
100,Castro,BR,-24.7911,-50.0119,67.62,57,43,3.18,scattered clouds
101,Torbay,CA,47.6666,-52.7314,45.39,63,40,27.63,scattered clouds
102,San Juan,AR,-31.5375,-68.5364,81.23,22,0,5.99,clear sky
103,Albany,US,42.6001,-73.9662,57.92,31,50,3.0,scattered clouds
104,Khani,GE,41.9563,42.9566,67.57,62,58,9.37,broken clouds
105,Lensk,RU,60.7253,114.9278,25.34,84,100,13.18,overcast clouds
106,Ancud,CL,-41.8697,-73.8203,55.22,69,86,6.11,overcast clouds
107,Safford,US,32.834,-109.7076,84.11,5,1,8.46,clear sky
108,Paamiut,GL,61.994,-49.6678,27.37,78,100,26.13,overcast clouds
109,Severnoye,RU,56.3491,78.3619,32.4,78,43,6.51,scattered clouds
110,Angers,FR,47.4667,-0.55,60.82,67,100,10.76,overcast clouds
111,Wanlaweyn,SO,2.6185,44.8938,82.62,72,100,12.46,overcast clouds
112,Saurimo,AO,-9.6608,20.3916,67.33,94,96,3.65,moderate rain
113,Namatanai,PG,-3.6667,152.4333,80.4,80,100,9.22,light rain
114,Iqaluit,CA,63.7506,-68.5145,-0.31,70,100,3.44,overcast clouds
115,Aljezur,PT,37.3191,-8.8033,58.3,76,0,22.5,clear sky
116,Lanxi,CN,29.2195,119.477,52.45,96,100,1.25,overcast clouds
117,Port Alfred,ZA,-33.5906,26.891,60.19,95,46,2.28,scattered clouds
118,San Cristobal,VE,7.7669,-72.225,78.98,56,96,5.93,overcast clouds
119,Nikolskoye,RU,59.7035,30.7861,46.29,87,89,3.18,overcast clouds
120,Nieuw Amsterdam,SR,5.8833,-55.0833,82.56,79,20,6.91,few clouds
121,Guerrero Negro,MX,27.9769,-114.0611,69.89,59,80,16.26,broken clouds
122,Port Lincoln,AU,-34.7333,135.8667,58.08,65,45,10.83,scattered clouds
123,Fort Nelson,CA,58.8053,-122.7002,20.79,49,40,9.22,scattered clouds
124,Bredasdorp,ZA,-34.5322,20.0403,60.53,94,3,7.29,clear sky
125,Bilma,NE,18.6853,12.9164,84.99,14,24,10.98,few clouds
126,Kodiak,US,57.79,-152.4072,38.71,70,100,11.5,overcast clouds
127,Inta,RU,66.0317,60.1659,28.62,96,99,11.74,overcast clouds
128,Otane,NZ,-39.8833,176.6333,57.0,98,70,4.03,broken clouds
129,Vestmannaeyjar,IS,63.4427,-20.2734,47.39,71,0,20.71,clear sky
130,East London,ZA,-33.0153,27.9116,65.34,94,100,10.36,light rain
131,Camacha,PT,33.0833,-16.3333,60.22,72,75,16.11,broken clouds
132,Batsfjord,NO,70.6345,29.7185,40.78,81,100,12.66,overcast clouds
133,Cidreira,BR,-30.1811,-50.2056,70.99,67,89,12.26,overcast clouds
134,Kaitangata,NZ,-46.2817,169.8464,48.9,77,100,5.41,overcast clouds
135,Nepomuk,CZ,49.4862,13.5823,50.52,80,95,2.98,overcast clouds
136,Touros,BR,-5.1989,-35.4608,84.15,67,94,11.25,overcast clouds
137,Hay River,CA,60.8156,-115.7999,22.98,42,0,6.91,clear sky
138,Bluff,NZ,-46.6,168.3333,54.37,83,100,9.01,light rain
139,Newport,GB,51.5877,-2.9984,55.11,67,12,9.55,few clouds
140,Paharpur,PK,32.1038,70.9724,86.13,24,73,7.56,broken clouds
141,Bengkulu,ID,-3.8004,102.2655,75.24,85,100,4.7,overcast clouds
142,Labuhan,ID,-6.8844,112.2051,79.48,88,100,5.88,overcast clouds
143,Thompson,CA,55.7435,-97.8558,37.56,35,40,12.66,scattered clouds
144,La Asuncion,VE,11.0333,-63.8628,83.93,65,100,19.57,overcast clouds
145,Boyolangu,ID,-8.1181,111.8935,76.24,91,100,4.03,overcast clouds
146,Georgetown,MY,5.4112,100.3354,80.53,93,20,3.44,few clouds
147,Chapais,CA,49.7834,-74.8492,31.78,62,100,4.76,overcast clouds
148,Kamaishi,JP,39.2667,141.8833,45.52,77,66,10.85,broken clouds
149,Victoria,HK,22.2855,114.1577,70.25,84,100,5.99,overcast clouds
150,Codajas,BR,-3.8367,-62.0569,80.11,89,100,3.6,overcast clouds
151,Cabo San Lucas,MX,22.8909,-109.9124,92.61,39,20,4.61,few clouds
152,Buta,CD,2.7858,24.73,72.5,91,29,0.81,light rain
153,Coquimbo,CL,-29.9533,-71.3436,61.25,75,13,7.11,few clouds
154,Rudbar,AF,30.15,62.6,66.07,47,96,23.0,light rain
155,Ponta Do Sol,PT,32.6667,-17.1,67.12,62,13,11.95,few clouds
156,Mesimerion,GR,40.412,23.0059,46.87,93,100,2.3,overcast clouds
157,Nicholasville,US,37.8806,-84.573,46.56,78,100,11.5,overcast clouds
158,Hami,CN,42.8,93.45,57.36,14,0,3.11,clear sky
159,Umea,SE,63.8284,20.2597,37.33,87,0,3.44,clear sky
160,Kosikha,RU,53.3617,84.5822,44.46,89,100,11.52,light rain
161,Weiser,US,44.251,-116.9693,57.87,51,100,5.01,overcast clouds
162,Leningradskiy,RU,69.3833,178.4167,11.52,90,99,3.96,overcast clouds
163,Hasaki,JP,35.7333,140.8333,52.2,78,100,14.9,overcast clouds
164,Goderich,CA,43.7501,-81.7165,46.9,45,100,16.11,overcast clouds
165,Sribne,UA,50.6638,32.9187,39.0,89,100,10.58,overcast clouds
166,San Rafael,AR,-34.6177,-68.3301,77.54,28,19,14.85,few clouds
167,Okhotsk,RU,59.3833,143.3,20.03,96,100,6.85,overcast clouds
168,Gwadar,PK,25.1216,62.3254,80.06,90,72,4.76,broken clouds
169,Batemans Bay,AU,-35.7167,150.1833,62.1,77,100,3.94,overcast clouds
170,Bethel,US,41.3712,-73.414,53.44,45,0,11.5,clear sky
171,Carlyle,US,38.6103,-89.3726,51.12,66,100,8.01,overcast clouds
172,Watsa,CD,3.0372,29.5355,65.25,95,16,3.31,few clouds
173,Tommot,RU,58.9564,126.2925,36.34,95,100,10.58,light rain
174,Tautira,PF,-17.7333,-149.15,80.01,75,31,8.63,scattered clouds
175,Port-Gentil,GA,-0.7193,8.7815,84.16,79,75,9.22,broken clouds
176,Olafsvik,IS,64.8945,-23.7142,42.48,64,11,7.34,few clouds
177,Saldanha,ZA,-33.0117,17.9442,64.45,78,0,9.82,clear sky
178,Springdale,US,36.1867,-94.1288,58.55,50,0,13.8,clear sky
179,Sur,OM,22.5667,59.5289,84.65,52,0,5.44,clear sky
180,Oudtshoorn,ZA,-33.5907,22.2014,55.76,78,2,3.67,clear sky
181,Santarem,BR,-2.4431,-54.7083,84.33,79,20,5.75,light rain
182,Araouane,ML,18.9048,-3.5265,81.01,9,0,8.84,clear sky
183,Chuy,UY,-33.6971,-53.4616,70.63,60,18,11.07,few clouds
184,Luderitz,NA,-26.6481,15.1594,77.16,37,1,11.43,clear sky
185,Sept-Iles,CA,50.2001,-66.3821,37.92,44,20,8.05,few clouds
186,Yellowknife,CA,62.456,-114.3525,21.72,38,75,8.05,broken clouds
187,Ixtapa,MX,20.7,-105.2,81.63,57,0,8.05,clear sky
188,Salinas,US,36.6777,-121.6555,63.82,49,0,5.75,clear sky
189,Ostrovnoy,RU,68.0531,39.5131,36.9,100,100,14.65,light rain
190,Townsville,AU,-19.25,146.8,70.68,83,6,6.91,clear sky
191,Lebu,CL,-37.6167,-73.65,57.79,87,100,5.73,overcast clouds
192,Iquitos,PE,-3.7481,-73.2472,77.04,100,75,6.91,broken clouds
193,Clyde River,CA,70.4692,-68.5914,-7.37,71,75,2.3,broken clouds
194,Davila,PH,18.4726,120.5763,76.98,81,34,15.68,scattered clouds
195,Ulaangom,MN,49.9811,92.0667,46.72,31,100,0.29,overcast clouds
196,Moree,AU,-29.4667,149.85,60.82,77,5,11.5,clear sky
197,Ridgecrest,US,35.6225,-117.6709,84.02,10,40,10.0,scattered clouds
198,Coihaique,CL,-45.5752,-72.0662,59.61,54,40,8.05,scattered clouds
199,Kavieng,PG,-2.5744,150.7967,82.83,73,100,12.35,overcast clouds
200,Port Blair,IN,11.6667,92.75,80.64,83,20,0.0,mist
201,Abu Dhabi,AE,24.4667,54.3667,80.62,43,0,6.91,clear sky
202,Chingirlau,KZ,51.095,54.0814,58.33,53,100,7.2,overcast clouds
203,Filadelfia,US,39.9523,-75.1638,49.21,61,100,11.5,overcast clouds
204,Teya,RU,60.3778,92.6267,0.97,100,71,3.4,broken clouds
205,Eyl,SO,7.9803,49.8164,82.45,80,7,7.56,clear sky
206,Mnogovershinnyy,RU,53.9353,139.9242,18.21,97,100,5.46,overcast clouds
207,Saint George,US,37.1041,-113.5841,82.63,13,0,4.61,clear sky
208,Khorixas,NA,-20.3667,14.9667,83.16,36,93,5.99,overcast clouds
209,Srednekolymsk,RU,67.45,153.6833,10.72,98,98,5.53,overcast clouds
210,Pyapon,MM,16.2833,95.6833,81.68,73,7,5.03,clear sky
211,Geraldton,AU,-28.7667,114.6,54.01,76,0,8.05,clear sky
212,Itoman,JP,26.1247,127.6694,70.57,70,100,4.61,overcast clouds
213,Sorland,NO,67.667,12.6934,44.46,89,78,4.03,broken clouds
214,Longkou,CN,37.6508,120.3286,51.24,57,0,3.87,clear sky
215,Buala,SB,-8.145,159.5921,80.26,81,100,7.23,overcast clouds
216,Ozernovskiy,RU,51.5,156.5167,28.63,78,99,3.85,overcast clouds
217,Kingori,TZ,-3.2833,36.9833,67.23,75,59,1.32,broken clouds
218,Chihuahua,MX,28.5,-106.0,81.43,14,100,10.65,overcast clouds
219,Cape Town,ZA,-33.9258,18.4232,64.9,83,0,12.66,clear sky
220,Puerto Cabezas,NI,14.0351,-83.3888,89.56,62,40,6.91,scattered clouds
221,La Ronge,CA,55.1001,-105.2842,41.22,33,100,9.22,overcast clouds
222,Batagay-Alyta,RU,67.8006,130.4114,8.82,97,100,2.44,overcast clouds
223,Caraballeda,VE,10.6112,-66.8522,84.27,74,75,4.61,broken clouds
224,Carutapera,BR,-1.195,-46.02,82.31,75,100,5.08,overcast clouds
225,Vung Tau,VN,10.346,107.0843,81.86,74,80,21.05,broken clouds
226,Chacabuco,AR,-34.6417,-60.4739,76.5,32,0,9.78,clear sky
227,Aksum,ET,14.1245,38.7244,70.83,30,14,13.85,few clouds
228,Arzamas,RU,55.3949,43.8399,37.98,91,100,7.11,overcast clouds
229,Rafiganj,IN,24.8167,84.65,87.94,12,0,6.85,clear sky
230,Donskoye,RU,45.4552,41.9741,65.97,58,97,11.63,overcast clouds
231,Kiama,AU,-34.6833,150.8667,66.58,86,100,3.0,overcast clouds
232,Doka,SD,13.5167,35.7667,96.3,19,93,1.81,overcast clouds
233,Hamilton,US,39.1834,-84.5333,41.09,87,100,19.57,overcast clouds
234,Oksfjord,NO,70.2396,22.3479,42.87,97,100,8.16,overcast clouds
235,Yeppoon,AU,-23.1333,150.7333,67.78,89,56,7.83,broken clouds
236,Barrow,US,71.2906,-156.7887,-5.78,77,0,5.75,clear sky
237,Talnakh,RU,69.4865,88.3972,20.21,95,100,10.83,light snow
238,Nizhnyaya Tavda,RU,57.6731,66.1725,33.35,73,76,5.35,broken clouds
239,Panorama,GR,40.5878,23.0315,44.11,90,100,2.3,overcast clouds
240,Bow Island,CA,49.8668,-111.3684,49.48,31,100,14.97,overcast clouds
241,Betafo,MG,-19.8333,46.85,63.77,89,54,4.25,broken clouds
242,Poum,NC,-20.2333,164.0167,77.38,78,6,10.69,clear sky
243,Rawson,AR,-43.3002,-65.1023,69.37,42,5,4.79,clear sky
244,Owando,CG,-0.4819,15.8999,75.58,87,100,1.63,light rain
245,Vila Franca Do Campo,PT,37.7167,-25.4333,61.21,71,80,12.73,broken clouds
246,Omsukchan,RU,62.5333,155.8,4.89,99,96,4.03,overcast clouds
247,Lucapa,AO,-8.4192,20.7447,69.28,90,95,3.29,overcast clouds
248,Leh,IN,34.1667,77.5833,39.54,42,0,5.26,clear sky
249,Tiarei,PF,-17.5333,-149.3333,82.42,75,21,7.23,few clouds
250,Ichnya,UA,50.8626,32.3942,38.52,83,97,8.86,overcast clouds
251,Langenhagen,DE,52.45,9.75,59.02,50,0,6.91,clear sky
252,Calbiga,PH,11.6247,125.0164,74.1,91,43,2.08,scattered clouds
253,Liverpool,GB,53.4106,-2.9779,54.28,69,40,4.61,scattered clouds
254,Orichi,RU,58.4036,49.0572,26.29,96,6,3.74,clear sky
255,Noumea,NC,-22.2763,166.4572,78.01,99,82,1.99,broken clouds
256,Abu Samrah,SY,35.3029,37.1841,79.39,19,100,9.51,overcast clouds
257,Badarpur,IN,24.9,92.6,73.22,92,66,0.89,broken clouds
258,Bulungu,CD,-4.55,18.6,78.4,73,66,0.18,broken clouds
259,Cayhagan,PH,9.6697,122.4256,78.53,80,3,7.78,clear sky
260,Cap Malheureux,MU,-19.9842,57.6142,79.47,87,55,3.0,broken clouds
261,Haimen,CN,23.1935,116.6142,64.29,82,100,9.15,overcast clouds
262,San Jose,US,37.3394,-121.895,67.48,47,75,4.61,broken clouds
263,Rio Gallegos,AR,-51.6226,-69.2181,51.42,57,100,20.54,overcast clouds
264,Laguna,US,38.421,-121.4238,66.78,56,0,9.22,clear sky
265,Derbent,RU,42.0678,48.2899,54.5,76,99,8.19,overcast clouds
266,Shieli,KZ,44.1667,66.75,71.91,38,100,6.76,overcast clouds
267,Farafangana,MG,-22.8167,47.8333,75.65,83,64,7.27,broken clouds
268,Avanigadda,IN,16.0215,80.9181,83.26,81,36,8.03,scattered clouds
269,Lesnoye,RU,58.2841,35.5158,33.6,96,18,2.73,few clouds
270,Tamale,GH,9.4008,-0.8393,88.52,48,100,8.72,overcast clouds
271,Puerto Madero,MX,14.7208,-92.4215,93.4,55,40,13.8,scattered clouds
272,Neuquen,AR,-38.9516,-68.0591,71.49,40,0,10.36,clear sky
273,Haines Junction,CA,60.7522,-137.5108,28.35,40,92,1.14,overcast clouds
274,Dustlik,UZ,40.5247,68.0358,68.41,47,100,13.94,overcast clouds
275,Charters Towers,AU,-20.1,146.2667,64.13,91,7,5.86,clear sky
276,Korla,CN,41.7597,86.1469,59.09,15,5,2.71,clear sky
277,Winnemucca,US,40.973,-117.7357,66.25,12,0,5.75,clear sky
278,Dingle,PH,10.9995,122.6711,76.82,85,25,9.42,scattered clouds
279,Erzurum,TR,40.0,41.5,47.88,64,100,5.88,overcast clouds
280,Constantine,DZ,36.365,6.6147,60.21,51,0,5.75,clear sky
281,Husavik,IS,66.0449,-17.3389,35.35,97,100,9.46,overcast clouds
282,Isla Del Bosque,MX,22.7333,-105.85,82.49,49,99,11.14,overcast clouds
283,Saint-Georges,GD,12.0564,-61.7485,82.08,74,75,24.16,broken clouds
284,Verkhnevilyuysk,RU,63.4453,120.3167,24.62,95,100,10.04,light snow
285,Siguiri,GN,11.6667,-9.5,94.46,25,100,1.3,overcast clouds
286,Tatui,BR,-23.3556,-47.8569,69.98,67,85,13.85,overcast clouds
287,Zavetnoye,RU,47.1194,43.8903,55.99,58,8,19.77,clear sky
288,Hudson Bay,CA,52.85,-102.3842,34.39,80,93,7.18,overcast clouds
289,Sitka,US,57.0531,-135.33,44.49,49,40,3.44,scattered clouds
290,Bam,IR,29.106,58.357,64.94,36,0,1.23,clear sky
291,Rio Grande,BR,-32.035,-52.0986,77.11,65,62,12.24,broken clouds
292,Krasnoselkup,RU,65.7,82.4667,27.97,95,100,22.62,light snow
293,Nantucket,US,41.2835,-70.0995,51.94,62,0,12.66,clear sky
294,Pisco,PE,-13.7,-76.2167,68.05,73,0,9.22,clear sky
295,Ust-Tsilma,RU,65.441,52.1498,32.25,98,100,4.85,overcast clouds
296,Cuamba,MZ,-14.8031,36.5372,68.59,86,10,3.91,clear sky
297,Te Anau,NZ,-45.4167,167.7167,52.66,91,100,2.95,overcast clouds
298,Chatra,IN,24.2167,84.8667,79.84,12,0,7.58,clear sky
299,La Macarena,CO,2.1837,-73.7849,82.35,70,100,3.83,overcast clouds
300,Sao Filipe,CV,14.8961,-24.4956,72.5,75,79,11.81,broken clouds
301,Livingston,GB,55.9029,-3.5226,52.11,52,20,9.22,few clouds
302,Narsaq,GL,60.9167,-46.05,43.02,49,100,4.99,overcast clouds
303,Tateyama,JP,34.9833,139.8667,54.1,85,100,10.51,overcast clouds
304,Corinto,GR,37.9407,22.9573,52.9,87,100,4.92,overcast clouds
305,Borovoy,RU,55.4333,86.0833,36.68,55,0,13.42,light rain
306,Anqiu,CN,36.4342,119.1925,52.32,38,0,4.47,clear sky
307,Saint-Michel-Des-Saints,CA,46.6834,-73.9159,43.93,48,89,4.32,overcast clouds
308,Walvis Bay,NA,-22.9575,14.5053,67.15,68,30,8.05,scattered clouds
309,Chernyshkovskiy,RU,48.4219,42.2308,62.65,60,100,14.7,light rain
310,Rorvik,NO,64.8621,11.2373,55.51,58,0,8.05,clear sky
311,Tambopata,PE,-12.7333,-69.1833,87.69,45,0,5.75,clear sky
312,Aban,RU,56.67,96.06,28.38,78,100,7.11,overcast clouds
313,Presidencia Roque Saenz Pena,AR,-26.7852,-60.4388,77.47,41,0,3.96,clear sky
314,Katangli,RU,51.7102,143.2326,19.69,99,85,5.66,overcast clouds
315,Belchatow,PL,51.3688,19.3567,49.05,52,100,5.77,overcast clouds
316,Mount Isa,AU,-20.7333,139.5,62.37,48,0,0.0,clear sky
317,Tucuma,BR,-0.1833,-50.05,82.4,71,18,2.26,light rain
318,Nushki,PK,29.5542,66.0215,71.87,41,100,11.54,overcast clouds
319,Pascagoula,US,30.3658,-88.5561,75.42,73,75,13.8,broken clouds
320,Bucerias,MX,20.75,-105.3333,82.38,57,0,8.05,clear sky
321,Lagoa,PT,39.05,-27.9833,58.26,71,8,16.33,clear sky
322,Nueva Gerona,CU,21.8833,-82.8,85.01,50,1,5.12,clear sky
323,Puerto Quijarro,BO,-17.7833,-57.7667,93.51,27,0,3.94,clear sky
324,Port Hardy,CA,50.6996,-127.4199,42.8,93,100,18.41,light rain
325,Marawi,PH,7.9986,124.2928,69.75,97,96,1.57,overcast clouds
326,Kamina,CD,-8.7386,24.9906,67.26,88,66,3.38,broken clouds
327,Hirara,JP,24.8,125.2833,71.62,85,100,20.51,overcast clouds
328,Kabansk,RU,52.0486,106.6528,45.59,75,59,6.13,broken clouds
329,Pevek,RU,69.7008,170.3133,9.55,94,100,5.01,overcast clouds
330,Los Llanos De Aridane,ES,28.6585,-17.9182,65.95,73,75,17.27,broken clouds
331,Ponta Delgada,PT,37.7333,-25.6667,61.52,67,75,12.66,broken clouds
332,Kanigiri,IN,15.4,79.5167,84.49,66,14,6.2,few clouds
333,Nome,US,64.5011,-165.4064,33.87,69,100,19.57,overcast clouds
334,Bakchar,RU,57.0186,82.0711,28.76,74,0,3.18,clear sky
335,Sultanpur,IN,26.2667,82.0667,88.83,9,0,3.87,clear sky
336,Mount Gambier,AU,-37.8333,140.7667,49.91,87,75,5.75,broken clouds
337,San Patricio,US,28.017,-97.5169,89.17,42,25,13.62,scattered clouds
338,Portales,US,34.1862,-103.3344,65.93,34,89,5.99,overcast clouds
339,Plettenberg Bay,ZA,-34.0527,23.3716,61.52,91,12,4.74,few clouds
340,Prado,BR,-17.3411,-39.2208,79.95,61,58,11.86,broken clouds
341,Cherskiy,RU,68.75,161.3,16.18,95,100,3.0,overcast clouds
342,Santiago De Chuco,PE,-8.15,-78.1833,61.48,62,90,5.32,light rain
343,Portland,US,45.5234,-122.6762,55.42,81,100,6.91,moderate rain
344,Ada,US,43.4166,-116.1262,64.65,30,0,24.0,clear sky
345,Kungurtug,RU,50.5994,97.5228,38.17,59,100,2.57,overcast clouds
346,Marsabit,KE,2.3284,37.9899,71.89,61,27,14.5,scattered clouds
347,Kovrov,RU,56.3572,41.3192,36.66,76,92,4.83,overcast clouds
348,Nichinan,JP,31.6,131.3667,61.18,70,100,5.26,overcast clouds
349,Tabou,CI,4.423,-7.3528,76.53,92,100,6.78,overcast clouds
350,Fairbanks,US,64.8378,-147.7164,36.09,37,0,9.22,clear sky
351,Dhidhdhoo,MV,6.8833,73.1,84.56,72,60,7.27,broken clouds
352,Koslan,RU,63.4564,48.8989,32.31,98,100,3.18,overcast clouds
353,Saint-Augustin,CA,51.226,-58.6502,32.18,71,8,24.49,clear sky
354,Muros,ES,42.7762,-9.0603,56.84,64,5,16.69,clear sky
355,Provideniya,RU,64.3833,-173.3,30.7,92,100,10.27,overcast clouds
356,Fenoarivo,MG,-18.933,47.4354,64.47,94,20,6.91,few clouds
357,Morro Bay,US,35.3658,-120.8499,68.2,72,100,10.0,overcast clouds
358,Tikhvin,RU,59.6451,33.5294,38.21,98,100,3.31,overcast clouds
359,Beloha,MG,-25.1667,45.05,74.71,86,69,12.75,broken clouds
360,Powell,US,40.1578,-83.0752,39.2,91,100,10.36,overcast clouds
361,Broken Hill,AU,-31.95,141.4333,56.91,94,100,17.27,overcast clouds
362,Khomeyn,IR,33.6423,50.0789,54.91,14,2,5.35,clear sky
363,Viedma,AR,-40.8135,-62.9967,74.1,38,100,19.13,overcast clouds
364,Mahajanga,MG,-15.7167,46.3167,78.82,94,20,1.14,few clouds
365,Zomba,MW,-15.386,35.3188,65.12,95,71,2.89,broken clouds
366,Baiyin,CN,36.5583,104.2081,45.23,28,100,6.76,overcast clouds
367,Rosarito,MX,32.3333,-117.0333,77.41,62,13,9.71,few clouds
368,Vila,PT,42.0304,-8.1588,45.48,79,99,8.23,overcast clouds
369,Kenai,US,60.5544,-151.2583,37.49,75,40,4.61,scattered clouds
370,Savelugu,GH,9.6244,-0.8253,89.35,47,100,9.69,overcast clouds
371,Ljutomer,SI,46.5208,16.1975,49.19,66,100,4.88,overcast clouds
372,Grootfontein,NA,-19.5667,18.1167,67.57,77,76,2.3,broken clouds
373,Nhulunbuy,AU,-12.2333,136.7667,77.61,94,75,4.61,broken clouds
374,Kirakira,SB,-10.4544,161.9205,78.93,84,100,4.92,overcast clouds
375,Beringovskiy,RU,63.05,179.3167,29.34,98,100,5.95,snow
376,Kununurra,AU,-15.7667,128.7333,76.98,88,50,3.44,scattered clouds
377,Povenets,RU,62.8487,34.8262,33.66,98,100,1.1,overcast clouds
378,Saint-Joseph,RE,-21.3667,55.6167,76.21,85,10,8.7,clear sky
379,Hirado,JP,33.3597,129.5531,59.65,58,100,3.06,overcast clouds
380,Kieta,PG,-6.2167,155.6333,77.9,86,100,2.59,light rain
381,Tainan,TW,22.9908,120.2133,73.18,73,75,5.75,broken clouds
382,Codrington,AU,-38.2667,141.9667,55.74,82,100,9.66,overcast clouds
383,Lexington,US,37.9887,-84.4777,44.98,82,100,11.5,overcast clouds
384,Juneau,US,58.3019,-134.4197,41.99,45,40,18.41,scattered clouds
385,Igarka,RU,67.4667,86.5833,20.86,95,100,16.33,snow
386,Kutum,SD,14.2,24.6667,86.54,27,100,4.92,overcast clouds
387,Acajutla,SV,13.5928,-89.8275,87.37,62,17,10.85,few clouds
388,Nautla,MX,20.2167,-96.7833,85.17,67,41,12.3,scattered clouds
389,Ashti,IN,19.3833,76.2333,90.7,16,0,9.19,clear sky
390,Stornoway,GB,58.2093,-6.3865,46.92,91,75,31.07,broken clouds
391,Akhaldaba,GE,41.654,42.1516,72.16,65,4,8.81,light rain
392,Tuy Hoa,VN,13.0833,109.3,73.78,92,91,5.73,overcast clouds
393,Ventspils,LV,57.3894,21.5606,40.93,65,0,6.91,clear sky
394,Oeiras Do Para,BR,-2.0031,-49.8544,83.23,84,81,2.55,broken clouds
395,Baruun-Urt,MN,46.6806,113.2792,48.87,28,30,16.44,scattered clouds
396,Marsa Matruh,EG,31.3525,27.2453,62.8,82,40,5.75,scattered clouds
397,Deputatskiy,RU,69.3,139.9,-5.69,100,100,2.44,overcast clouds
398,Biaora,IN,23.8667,76.9167,89.4,15,21,7.47,few clouds
399,Hit,IQ,33.6416,42.8251,77.45,12,5,3.85,clear sky
400,Samarai,PG,-10.6167,150.6667,80.69,83,100,11.54,overcast clouds
401,Lata,PT,40.1629,-8.3327,52.61,82,55,11.16,broken clouds
402,North Bend,US,43.4065,-124.2243,55.31,87,100,12.66,overcast clouds
403,Celestun,MX,20.8667,-90.4,84.92,62,0,14.92,clear sky
404,Mangrol,IN,21.1167,70.1167,80.78,69,0,11.56,clear sky
405,Perelyub,RU,51.8667,50.3667,57.49,68,100,7.99,overcast clouds
406,Butembo,CD,0.15,29.2833,58.93,94,100,2.84,overcast clouds
407,Haysville,US,37.5645,-97.3523,56.46,29,100,13.8,overcast clouds
408,Hofn,IS,64.2539,-15.2082,46.42,66,100,19.57,light intensity drizzle
409,Kerema,PG,-7.9631,145.7785,76.48,91,100,13.53,overcast clouds
410,Agucadoura,PT,41.4318,-8.7804,62.24,71,0,22.82,clear sky
411,Baykit,RU,61.67,96.37,13.21,92,86,7.05,overcast clouds
412,Whitehorse,CA,60.7161,-135.0538,26.1,45,0,3.44,clear sky
413,A Coruna,ES,43.3713,-8.396,55.78,80,75,15.01,light rain
414,Aswan,EG,24.0934,32.907,94.3,8,0,4.61,clear sky
415,Lubbock,US,33.6001,-101.8338,67.37,27,20,25.32,few clouds
416,Makakilo City,US,21.3469,-158.0858,76.19,60,0,12.66,clear sky
417,Kaniama,CD,-7.5667,24.1833,69.57,90,22,4.34,few clouds
418,Monrovia,LR,6.3005,-10.7969,80.55,78,99,8.28,overcast clouds
419,Swan River,CA,52.1058,-101.2676,33.69,51,37,13.8,scattered clouds
420,Lebyazhye,RU,55.2689,66.4947,41.29,60,37,6.91,scattered clouds
421,Iralaya,HN,15.0,-83.2333,85.15,58,0,10.92,clear sky
422,Port Angeles,US,48.1181,-123.4307,49.33,89,75,3.44,broken clouds
423,Upington,ZA,-28.4478,21.2561,68.38,40,0,3.44,clear sky
424,Warmbad,NA,-28.45,18.7333,73.6,22,0,12.03,clear sky
425,Pedernales,DO,18.0384,-71.744,81.91,62,100,16.04,overcast clouds
426,Acari,PE,-15.4311,-74.6158,78.98,52,71,10.63,broken clouds
427,Banda Aceh,ID,5.5577,95.3222,80.6,78,49,4.88,scattered clouds
428,Ugoofaaru,MV,5.6667,73.0,84.49,67,100,7.25,overcast clouds
429,Oranjemund,NA,-28.55,16.4333,67.37,51,0,11.83,clear sky
430,Kamenka,RU,51.3223,42.7678,54.45,66,38,10.8,scattered clouds
431,Talcahuano,CL,-36.7167,-73.1167,59.0,82,61,7.27,broken clouds
432,Luchegorsk,RU,46.4764,134.2569,36.39,51,100,4.45,overcast clouds
433,Margate,GB,51.3813,1.3862,56.1,68,100,1.99,overcast clouds
434,Sinnamary,GF,5.3833,-52.95,80.11,82,100,9.31,moderate rain
435,Krasnovishersk,RU,60.4078,57.082,25.68,95,94,2.3,overcast clouds
436,Kodinsk,RU,58.6881,99.1844,21.65,82,13,8.59,few clouds
437,Jyvaskyla,FI,62.2415,25.7209,39.94,78,0,1.14,clear sky
438,Magadan,RU,59.5667,150.8,21.16,93,94,5.14,overcast clouds
439,Sembe,CG,1.6481,14.5806,70.45,98,100,0.76,light rain
440,Belmopan,BZ,17.25,-88.7667,91.78,27,27,5.95,scattered clouds
441,Atar,MR,20.5169,-13.0499,95.9,10,80,7.83,broken clouds
442,Esperance,AU,-33.8667,121.9,55.24,81,62,9.64,broken clouds
443,Kerrville,US,30.0474,-99.1403,80.94,48,0,6.91,clear sky
444,Comodoro Rivadavia,AR,-45.8667,-67.5,60.66,63,0,8.05,clear sky
445,Bonoua,CI,5.2741,-3.595,80.22,87,100,4.9,moderate rain
446,Port Moresby,PG,-9.4431,147.1797,74.62,100,40,8.05,scattered clouds
447,Kahului,US,20.8947,-156.47,77.02,69,20,16.11,few clouds
448,Balugaon,IN,20.1667,85.1,81.09,71,0,4.27,clear sky
449,El Alto,PE,-4.2714,-81.2147,78.46,72,70,9.8,broken clouds
450,Grande Prairie,CA,55.1667,-118.8027,24.98,68,100,12.66,overcast clouds
451,Qasigiannguit,GL,68.8193,-51.1922,16.05,92,100,12.19,light snow
452,Gardez,AF,33.5974,69.2259,53.15,66,100,2.66,light rain
453,Grindavik,IS,63.8424,-22.4338,45.07,70,75,16.11,broken clouds
454,Faya,SA,18.3851,42.4509,72.12,46,53,5.03,light rain
455,Aykhal,RU,66.0,111.5,6.82,94,100,25.19,light snow
456,Kirkwood,US,38.5834,-90.4068,52.72,50,40,17.27,scattered clouds
457,Launceston,AU,-41.45,147.1667,55.04,94,100,6.91,overcast clouds
458,Aden,YE,12.7794,45.0367,83.44,73,28,14.58,scattered clouds
459,Diego De Almagro,CL,-26.3667,-70.05,76.06,22,0,10.13,clear sky
460,Gat,IL,31.61,34.7642,67.82,100,100,4.85,overcast clouds
461,Pandan,PH,14.0453,124.1694,77.49,83,15,6.71,few clouds
462,Cayenne,GF,4.9333,-52.3333,77.04,1,100,3.44,overcast clouds
463,Qaqortoq,GL,60.7167,-46.0333,39.11,52,100,5.3,overcast clouds
464,Taunggyi,MM,20.7833,97.0333,64.47,69,14,3.53,few clouds
465,Faanui,PF,-16.4833,-151.75,80.56,75,21,10.25,light rain
466,Garowe,SO,8.4054,48.4845,81.66,60,0,8.37,light rain
467,Shingu,JP,33.7333,135.9833,54.25,67,97,5.88,overcast clouds
468,Raga,SS,8.4596,25.678,83.1,52,100,9.31,overcast clouds
469,Alta Floresta,BR,-9.8756,-56.0861,87.62,66,40,9.22,scattered clouds
470,Vardo,NO,70.3705,31.1107,39.18,81,75,18.41,broken clouds
471,Pau Dos Ferros,BR,-6.1125,-38.2063,83.89,68,82,1.19,broken clouds
472,Vila Velha,BR,-20.3297,-40.2925,80.55,62,20,17.27,few clouds
473,Fare,PF,-16.7,-151.0167,80.74,74,10,9.89,clear sky
474,Brooks,CA,50.5834,-111.8851,48.18,29,100,12.66,overcast clouds
475,Paraiso,CR,9.8383,-83.8656,80.96,64,100,3.53,overcast clouds
476,Ngunguru,NZ,-35.6167,174.5,67.32,95,65,16.44,light rain
477,Vysokogornyy,RU,50.1167,139.15,15.84,97,61,2.37,broken clouds
478,Waipawa,NZ,-41.4122,175.5153,52.45,94,12,5.79,few clouds
479,Anshun,CN,26.25,105.9333,47.28,83,100,8.39,overcast clouds
480,Banjar,ID,-8.19,114.9675,77.52,88,100,1.95,light rain
481,Gigmoto,PH,13.7796,124.39,77.25,84,34,5.88,scattered clouds
482,Saint-Pierre,RE,-21.3393,55.4781,77.29,84,40,4.61,scattered clouds
483,Kharod,IN,21.75,82.5667,89.37,15,25,8.14,scattered clouds
484,Mahebourg,MU,-20.4081,57.7,79.25,94,40,10.36,scattered clouds
485,Muriwai Beach,NZ,-36.8167,174.45,66.34,96,100,13.87,light rain
486,Izhma,RU,65.0083,53.9113,32.74,95,100,4.59,overcast clouds
487,Rosetta,EG,31.4044,30.4164,63.07,78,100,9.86,overcast clouds
488,Skibbereen,IE,51.55,-9.2667,46.11,71,39,13.04,scattered clouds
489,Klaksvik,FO,62.2266,-6.589,45.52,85,8,23.78,light rain
490,Lae,PG,-6.7221,146.9847,76.26,92,100,6.2,heavy intensity rain
491,Zhanakorgan,KZ,43.9098,67.2495,72.61,37,100,13.09,overcast clouds
492,Flinders,AU,-34.5833,150.8552,68.38,82,100,4.0,overcast clouds
493,Atambua,ID,-9.1061,124.8925,73.35,89,98,3.89,overcast clouds
494,Ketchikan,US,55.3422,-131.6461,50.47,32,0,11.5,clear sky
495,Sujiatun,CN,41.6592,123.3392,46.58,46,0,6.71,clear sky
496,Naze,JP,28.3667,129.4833,61.72,83,100,9.13,light rain
497,Maunabo,PR,18.0072,-65.8993,87.48,73,72,15.7,broken clouds
498,Bagdarin,RU,54.4333,113.6,39.92,69,100,11.14,overcast clouds
499,Boende,CD,-0.2167,20.8667,72.52,98,100,3.56,light rain
500,Okha,RU,53.5739,142.9478,23.34,91,22,10.58,few clouds
501,College,US,64.8569,-147.8028,36.09,37,0,9.22,clear sky
502,Brantford,CA,43.1334,-80.2664,44.28,61,100,15.14,overcast clouds
503,Port-Cartier,CA,50.0334,-66.8654,37.62,56,4,3.71,clear sky
504,Tashtyp,RU,52.7939,89.8983,49.95,63,100,3.18,overcast clouds
505,Batesville,US,35.7698,-91.641,60.62,50,0,5.75,clear sky
506,Kargasok,RU,59.0556,80.8572,27.99,79,80,6.89,broken clouds
507,Saint-Gaudens,FR,43.0833,0.6667,55.02,83,100,2.35,overcast clouds
508,Susuman,RU,62.7833,148.1667,-0.87,100,100,1.74,overcast clouds
509,Almeirim,BR,-1.5233,-52.5817,84.43,74,77,1.81,broken clouds
510,La Massana,AD,42.5667,1.4833,50.31,91,97,2.13,overcast clouds
511,Itaituba,BR,-4.2761,-55.9836,86.16,79,40,0.0,scattered clouds
512,Maragogi,BR,-9.0122,-35.2225,80.98,78,80,7.87,broken clouds
513,Kudahuvadhoo,MV,2.6708,72.8944,83.73,69,72,5.17,broken clouds
514,Mayumba,GA,-3.432,10.6554,78.69,90,100,3.98,overcast clouds
515,Novo Oriente,BR,-5.5344,-40.7742,82.09,66,100,1.79,overcast clouds
516,Gallup,US,35.5281,-108.7426,75.04,6,0,12.66,clear sky
517,Shimanovsk,RU,52.0,127.7,33.96,92,100,6.33,overcast clouds
518,Mersing,MY,2.4312,103.8405,78.71,94,20,4.61,few clouds
519,Bolondron,CU,22.7633,-81.4469,84.4,41,50,16.53,scattered clouds
520,Pangnirtung,CA,66.1451,-65.7125,-4.0,71,75,12.66,broken clouds
521,Paka,MY,4.6374,103.4368,80.53,94,100,0.0,overcast clouds
522,Atasu,KZ,48.6814,71.6433,51.66,61,67,23.44,broken clouds
523,Axim,GH,4.8699,-2.2405,78.75,82,100,4.74,overcast clouds
524,Ossora,RU,59.2353,163.0719,20.64,84,100,5.19,overcast clouds
525,Hambantota,LK,6.1241,81.1185,79.14,100,58,2.3,broken clouds
526,Dembi Dolo,ET,8.5333,34.8,61.63,87,25,4.88,light rain
527,Karratha,AU,-20.7377,116.8463,83.17,40,0,15.14,clear sky
528,Faro,PT,37.0194,-7.9322,74.98,53,0,16.11,clear sky
529,Santiago,CL,-33.4569,-70.6483,78.28,37,0,12.66,clear sky
530,Villa Carlos Paz,AR,-31.4241,-64.4978,75.4,30,0,11.01,clear sky
531,Myaundzha,RU,63.0494,147.1858,-0.58,100,98,2.19,overcast clouds
532,Lavrentiya,RU,65.5833,-171.0,28.56,91,100,8.41,overcast clouds
533,Yulara,AU,-25.2406,130.9889,58.84,67,10,4.61,clear sky
534,La Palma,US,33.8464,-118.0467,80.82,61,75,5.01,broken clouds
535,Marienburg,PL,54.0359,19.0266,43.57,70,100,8.39,overcast clouds
536,Barranca,PE,-10.75,-77.7667,70.52,72,100,10.74,overcast clouds
537,Rawlins,US,41.7911,-107.2387,57.34,24,0,6.91,clear sky
538,Harbour Breton,CA,47.4833,-55.7983,41.79,67,96,20.07,overcast clouds
539,Jaicos,BR,-7.3592,-41.1378,83.77,65,100,3.38,light rain
540,Cahul,MD,45.9075,28.1944,43.79,44,100,5.57,overcast clouds
541,Terny,UA,50.9833,33.9833,40.46,97,100,9.82,light rain
542,Biak,ID,-0.9131,122.8766,76.39,83,51,0.96,broken clouds
543,Paita,PE,-5.0892,-81.1144,74.28,69,51,15.57,broken clouds
544,Altamira,BR,-3.2033,-52.2064,89.69,62,40,4.61,scattered clouds
545,Mao,ES,39.8885,4.2658,57.76,82,0,4.61,clear sky
546,Moron,AR,-34.6534,-58.6198,73.99,63,31,7.61,scattered clouds
547,Belmonte,BR,-15.8631,-38.8828,77.04,77,100,12.21,overcast clouds
548,Ulaanbaatar,MN,47.9077,106.8832,33.93,44,0,2.24,clear sky
549,Iquique,CL,-20.2208,-70.1431,67.24,67,8,5.84,clear sky
550,Anadyr,RU,64.75,177.4833,30.7,92,75,11.18,light snow
551,Tual,ID,-5.6667,132.75,83.68,71,100,2.71,overcast clouds
552,Krasnaya Gora,RU,52.9995,31.6023,35.06,99,100,6.29,overcast clouds
553,Youghal,IE,51.95,-7.8506,51.1,69,75,8.16,broken clouds
554,The Valley,AI,18.217,-63.0578,84.06,65,40,19.57,scattered clouds
555,Mardin,TR,37.3131,40.7436,62.76,30,99,5.97,overcast clouds
556,Sola,VU,-13.8833,167.55,82.0,76,100,13.49,overcast clouds
557,Inuvik,CA,68.3499,-133.7218,23.86,35,0,5.75,clear sky
558,Bondowoso,ID,-7.9135,113.8214,74.71,92,100,1.05,overcast clouds
559,Rapar,IN,23.5667,70.6333,82.13,57,22,11.99,few clouds
560,Sahuaripa,MX,29.05,-109.2333,98.51,5,2,3.6,clear sky
561,Henties Bay,NA,-22.116,14.2845,65.34,72,57,5.01,broken clouds
562,Pallasovka,RU,50.05,46.8833,56.26,60,100,11.79,light rain
563,Mednogorsk,RU,51.4128,57.595,54.25,57,98,0.85,overcast clouds
564,Airai,TL,-8.9266,125.4092,60.24,87,99,2.46,overcast clouds
565,Jalu,LY,29.0331,21.5482,69.44,40,0,9.26,clear sky
566,Luohe,CN,33.5717,114.0353,50.16,59,100,6.33,overcast clouds
567,Birjand,IR,32.8663,59.2211,50.47,62,40,6.91,scattered clouds
568,Homer,US,59.6425,-151.5483,41.77,67,0,5.75,clear sky
569,Mogadishu,SO,2.0371,45.3438,82.99,81,100,13.8,overcast clouds
570,Alofi,NU,-19.0595,-169.9187,76.89,94,75,2.3,broken clouds
571,Bilibino,RU,68.0546,166.4372,10.44,97,100,1.97,overcast clouds
572,Abha,SA,18.2164,42.5053,71.85,25,20,6.91,few clouds
573,Brae,GB,60.3964,-1.353,45.39,77,95,8.23,overcast clouds
574,Vysokovsk,RU,56.3167,36.55,35.64,76,85,5.06,overcast clouds
575,Srandakan,ID,-7.9386,110.2506,77.07,91,100,3.4,overcast clouds
576,Maldonado,UY,-34.6667,-54.9167,70.99,63,90,6.42,overcast clouds
577,Puksoozero,RU,62.5903,40.6066,32.4,99,100,0.94,overcast clouds
578,Dongning,CN,44.0622,131.1207,39.18,39,4,2.86,clear sky
579,Sarai,RU,53.7458,41.0213,39.7,96,100,10.8,light rain
580,Takoradi,GH,4.8845,-1.7554,79.34,80,100,3.74,overcast clouds
581,Alice Springs,AU,-23.7,133.8833,63.95,55,7,6.91,clear sky
582,Aseri,EE,59.4506,26.8675,35.53,96,40,3.91,scattered clouds
583,Barcelos,PT,41.5388,-8.6151,61.84,70,12,14.54,few clouds
584,Pandamatenga,BW,-18.5278,25.627,67.69,68,65,5.91,broken clouds
585,Malangwa,NP,26.8568,85.5581,81.36,59,0,13.44,clear sky
586,Acapulco,MX,16.8634,-99.8901,84.02,70,0,12.66,clear sky
587,Zhigansk,RU,66.7697,123.3711,28.72,95,100,16.11,overcast clouds
588,Xining,CN,36.6167,101.7667,38.17,52,100,5.08,overcast clouds
589,Batagay,RU,67.6333,134.6333,7.48,89,100,5.79,overcast clouds
590,Yar-Sale,RU,66.8333,70.8333,15.03,91,100,11.07,overcast clouds
591,Kallidaikurichchi,IN,8.6667,77.4833,80.6,81,100,7.49,overcast clouds
592,Hutchinson,US,38.0608,-97.9298,54.03,30,40,8.05,scattered clouds
593,Marystown,CA,47.1666,-55.1483,40.98,69,31,27.72,scattered clouds
594,Santiago Del Estero,AR,-27.7951,-64.2615,79.54,37,0,11.16,clear sky
595,Chandpur,IN,29.15,78.2667,84.97,12,0,3.24,clear sky
596,San Rafael Del Sur,NI,11.8485,-86.4384,90.57,50,100,8.28,overcast clouds
597,Webuye,KE,0.6075,34.7697,64.47,88,81,3.78,light rain
598,Florida,US,28.7505,-82.5001,84.02,61,100,16.11,overcast clouds
599,Sobolevo,RU,54.4299,31.8996,39.47,87,100,12.08,overcast clouds
600,Natal,BR,-5.795,-35.2094,86.65,70,40,14.97,scattered clouds
601,Pangody,RU,65.85,74.4859,24.57,87,100,16.02,overcast clouds
602,Novomyshastovskaya,RU,45.1991,38.5827,64.62,69,100,5.93,overcast clouds
603,Kovdor,RU,67.5662,30.4758,36.25,97,100,4.03,overcast clouds
604,Njombe,TZ,-9.3333,34.7667,57.31,99,54,5.46,broken clouds
605,Westport,US,41.1415,-73.3579,53.42,53,0,13.8,clear sky
606,Dindori,IN,22.95,81.0833,83.34,17,37,1.39,scattered clouds
607,Caravelas,BR,-17.7125,-39.2481,80.28,59,3,10.33,clear sky
608,Maxixe,MZ,-23.8597,35.3472,73.22,94,75,0.0,drizzle
609,Labrea,BR,-7.2586,-64.7981,81.91,88,90,2.04,overcast clouds
610,Salinopolis,BR,-0.6136,-47.3561,82.38,78,100,8.19,overcast clouds
611,Warrnambool,AU,-38.3833,142.4833,56.8,79,100,9.95,moderate rain
612,Garden City,US,42.3256,-83.331,35.85,91,100,4.61,mist
613,Sainte-Suzanne,RE,-20.9061,55.6089,78.98,88,75,9.22,broken clouds
614,Ilebo,CD,-4.3167,20.5833,76.14,81,91,0.94,overcast clouds
615,Tyukhtet,RU,56.5389,89.3011,29.79,78,100,6.26,overcast clouds
616,Adrar,MR,20.5022,-10.0711,87.55,11,4,8.68,clear sky
617,Mayo,US,38.8876,-76.5119,50.04,65,100,16.11,light rain
618,Alyangula,AU,-13.8483,136.4192,73.27,100,40,0.0,scattered clouds
619,Kloulklubed,PW,7.0419,134.2556,77.5,78,100,7.87,overcast clouds
620,Coahuayana,MX,18.7333,-103.6833,89.56,48,100,8.52,overcast clouds
621,Lamu,KE,-2.2717,40.902,82.62,77,100,11.21,overcast clouds
622,Russkoye,UA,45.0167,34.8,43.97,93,95,6.29,overcast clouds
623,Neka,IR,36.6508,53.299,54.91,82,0,2.3,clear sky
624,Kendari,ID,-3.945,122.4989,77.79,90,100,4.32,overcast clouds
625,Roald,NO,62.5833,6.1333,54.52,71,0,1.14,clear sky
626,Farah,AF,32.5,62.5,58.1,56,0,9.48,light rain
627,Inyonga,TZ,-6.7167,32.0667,66.76,85,35,5.41,scattered clouds
628,San Juan De Los Morros,VE,9.9115,-67.3538,86.16,45,95,4.7,overcast clouds
629,Nioro,GM,13.35,-15.75,89.2,29,9,13.15,clear sky
630,Rincon,US,32.296,-81.2354,78.94,67,75,16.11,broken clouds
631,Maneadero,MX,31.7167,-116.5667,66.09,78,10,3.0,clear sky
632,Cabedelo,BR,-6.9811,-34.8339,88.47,70,97,9.62,overcast clouds
633,Zhangjiakou,CN,40.81,114.8794,50.86,27,0,3.94,clear sky
634,Vuktyl,RU,63.8567,57.3094,30.92,95,100,4.7,overcast clouds
635,Thinadhoo,MV,0.5333,72.9333,83.53,70,100,3.87,overcast clouds
636,Mazamari,PE,-11.3258,-74.5308,84.69,56,84,2.44,broken clouds
637,Kentau,KZ,43.5206,68.5094,70.0,38,100,10.4,overcast clouds
638,Urumqi,CN,43.801,87.6005,68.95,8,0,20.13,clear sky
639,Sisimiut,GL,66.9395,-53.6735,14.27,76,100,11.07,light snow
640,Ocampo,MX,21.65,-101.5,81.14,24,0,12.82,clear sky
641,Shenjiamen,CN,29.9576,122.298,55.49,73,100,4.72,overcast clouds
642,San Andres,CO,12.5847,-81.7006,86.02,70,20,8.05,few clouds
643,Benito Juarez,MX,19.385,-99.165,81.0,18,81,3.0,broken clouds
644,Mazatlan,MX,23.2167,-106.4167,78.91,75,67,4.0,broken clouds
645,Kismayo,SO,-0.3582,42.5454,82.53,77,100,8.7,light rain
646,Aasiaat,GL,68.7098,-52.8699,11.55,80,100,12.17,overcast clouds
647,Balikpapan,ID,-1.2675,116.8289,77.99,100,40,3.44,scattered clouds
648,Buenos Aires,AR,-34.6132,-58.3772,73.98,64,20,5.75,few clouds
649,Balkhash,KZ,46.844,74.9804,58.17,32,86,5.1,overcast clouds
650,Darnah,LY,32.767,22.6367,60.57,65,6,18.54,clear sky
651,Hovd,MN,48.0056,91.6419,48.0,22,100,9.19,overcast clouds
652,Kalabo,ZM,-14.97,22.6814,69.78,76,100,4.97,overcast clouds
653,Jiexiu,CN,37.0244,111.9125,51.08,43,0,3.76,clear sky
654,Khasan,RU,42.4308,130.6434,41.04,64,0,1.05,clear sky
655,Bandarbeyla,SO,9.4942,50.8122,81.82,79,1,9.55,clear sky
656,Lombardia,MX,19.15,-102.0333,97.45,10,44,6.49,scattered clouds
657,Asfi,MA,32.2994,-9.2372,63.57,83,53,16.67,broken clouds
658,Carhuamayo,PE,-10.9167,-76.0333,53.74,36,100,10.29,overcast clouds
659,Champerico,GT,14.3,-91.9167,95.54,63,11,12.75,few clouds
660,Castro Verde,PT,37.6983,-8.0858,65.62,62,0,19.22,clear sky
661,Castlemaine,AU,-37.0667,144.2167,56.28,96,100,1.81,light rain
662,Wuwei,CN,37.9281,102.6414,46.63,50,100,12.37,overcast clouds
663,Fortuna Foothills,US,32.6578,-114.4119,92.21,10,0,10.36,clear sky
664,Saint Simons,US,31.1352,-81.3901,78.85,57,40,12.66,scattered clouds
665,Marsh Harbour,BS,26.5412,-77.0636,77.36,75,80,7.76,broken clouds
666,Maloy,NO,61.9353,5.1136,51.53,65,0,7.58,clear sky
667,Santa Maria,BR,-29.6842,-53.8069,76.3,53,40,6.91,scattered clouds
668,Antalaha,MG,-14.9003,50.2788,74.75,88,96,7.7,overcast clouds
669,Hanko,FI,59.8333,22.95,40.14,81,34,1.92,scattered clouds
670,Vikhorevka,RU,56.1201,101.1636,35.19,81,100,9.71,overcast clouds
671,Caluquembe,AO,-13.7833,14.6833,61.43,93,100,3.76,light rain
672,Torbat-E Jam,IR,35.244,60.6225,50.4,71,100,15.32,overcast clouds
673,Skjervoy,NO,70.0311,20.9714,48.2,91,100,7.94,overcast clouds
674,Can,TR,40.0333,27.0524,42.55,98,100,7.38,overcast clouds
675,Sampit,ID,-2.5333,112.95,76.39,91,99,2.17,moderate rain
676,Qingdao,CN,36.0986,120.3719,49.6,71,1,2.24,haze
677,Malkangiri,IN,18.35,81.9,84.92,44,4,2.53,clear sky
678,Wladyslawowo,PL,54.7909,18.4009,45.93,68,100,10.0,overcast clouds
679,Malayal,PH,7.208,121.942,76.8,82,78,2.71,broken clouds
680,Yazd,IR,31.8972,54.3675,62.71,19,0,6.91,clear sky
681,Bagar,IN,28.1874,75.5005,85.55,17,1,8.59,clear sky
682,Sweetwater,US,25.7634,-80.3731,90.0,62,75,8.05,broken clouds
683,Asau,RO,46.4333,26.4,37.96,64,92,3.56,overcast clouds
684,Basco,PH,20.4487,121.9702,77.09,82,51,16.69,broken clouds
685,Barra Do Garcas,BR,-15.89,-52.2567,93.78,38,40,3.44,scattered clouds
686,Vlagtwedde,NL,53.0275,7.1083,59.25,64,0,7.83,clear sky
687,Konya,TR,38.1667,32.5,53.65,40,0,1.95,clear sky
688,Puerto Colombia,CO,10.9878,-74.9547,78.89,76,27,12.26,scattered clouds
